<?xml version="1.0" encoding="UTF-8"?>
<settings>
<servers><server url="http://vipspeedtest8.wuhan.net.cn:8080/speedtest/upload.php" lat="30.5833" lon="114.2833" name="Wuhan" country="China" cc="CN" sponsor="wuhan hello 5G" id="29353"  host="vipspeedtest8.wuhan.net.cn:8080" />
<server url="http://vipspeedtest1.wuhan.net.cn:8080/speedtest/upload.php" lat="30.5833" lon="114.2833" name="Wuhan" country="China" cc="CN" sponsor="China Telecom Wuhan Branch" id="23844"  host="vipspeedtest1.wuhan.net.cn:8080" />
<server url="http://113.57.249.2:8080/speedtest/upload.php" lat="30.5833" lon="114.2833" name="Wuhan" country="China" cc="CN" sponsor="China Unicom,Hubei Branch" id="5485"  host="113.57.249.2:8080" />
<server url="http://st-per-01.gcomm.com.au:8080/speedtest/upload.php" lat="31.9505" lon="115.8605" name="Perth" country="Australia" cc="AU" sponsor="GCOMM" id="30985"  host="st-per-01.gcomm.com.au:8080" />
<server url="http://speedtest.nc.jx.chinamobile.com:8080/speedtest/upload.php" lat="28.6829" lon="115.8582" name="NanChang" country="China" cc="CN" sponsor="江西移动5G" id="25883"  host="speedtest.nc.jx.chinamobile.com:8080" />
<server url="http://speedtest2.hn.chinamobile.com:8080/speedtest/upload.php" lat="28.1854" lon="113.0325" name="ChangSha" country="China" cc="CN" sponsor="China Mobile HuNan 5G" id="28491"  host="speedtest2.hn.chinamobile.com:8080" />
<server url="http://speedtest01.hn165.com:8080/speedtest/upload.php" lat="28.1961" lon="112.9722" name="Changsha" country="China" cc="CN" sponsor="Changsha, Hunan Unicom,Server1" id="4870"  host="speedtest01.hn165.com:8080" />
<server url="http://mygod998.vicp.net:8080/speedtest/upload.php" lat="28.1961" lon="112.9722" name="Changsha" country="China" cc="CN" sponsor="Hunan Telecom 5G" id="28225"  host="mygod998.vicp.net:8080" />
<server url="http://speedtest1.ah163.com:8080/speedtest/upload.php" lat="31.8667" lon="117.2833" name="Hefei" country="CN" cc="CN" sponsor="China Telecom AnHui 5G" id="17145"  host="speedtest1.ah163.com:8080" />
<server url="http://speedtest2.ah.chinamobile.com:8080/speedtest/upload.php" lat="31.8667" lon="117.2833" name="Hefei" country="China" cc="CN" sponsor="安徽移动5G" id="26404"  host="speedtest2.ah.chinamobile.com:8080" />
<server url="http://112.122.10.26:8080/speedtest/upload.php" lat="31.8667" lon="117.2833" name="Hefei" country="China" cc="CN" sponsor="ChinaUnicom" id="5724"  host="112.122.10.26:8080" />
<server url="http://speedtest02.hn165.com:8080/speedtest/upload.php" lat="27.8280" lon="113.1339" name="Zhuzhou" country="China" cc="CN" sponsor="Changsha, Hunan Unicom" id="26677"  host="speedtest02.hn165.com:8080" />
<server url="http://5gnanjing.speedtest.jsinfo.net:8080/speedtest/upload.php" lat="32.0500" lon="118.7667" name="Nanjing" country="China" cc="CN" sponsor="China Telecom JiangSu 5G" id="26352"  host="5gnanjing.speedtest.jsinfo.net:8080" />
<server url="http://speedtest02.js165.com:8080/speedtest/upload.php" lat="32.0602" lon="118.7968" name="Nanjing" country="China" cc="CN" sponsor="China Unicom" id="13704"  host="speedtest02.js165.com:8080" />
<server url="http://owa.eastcom-sw.com:8080/speedtest/upload.php" lat="32.0602" lon="118.7968" name="Nanjing" country="China" cc="CN" sponsor="China Mobile jiangsu 5G" id="27249"  host="owa.eastcom-sw.com:8080" />
<server url="http://5ghenan.ha.chinamobile.com:8080/speedtest/upload.php" lat="34.7466" lon="113.6253" name="Zhengzhou" country="China" cc="CN" sponsor="Henan CMCC 5G" id="26331"  host="5ghenan.ha.chinamobile.com:8080" />
<server url="http://4gsuzhou1.speedtest.jsinfo.net:8080/speedtest/upload.php" lat="34.2600" lon="117.2100" name="Suzhou" country="China" cc="CN" sponsor="China Telecom JiangSu 5G" id="5396"  host="4gsuzhou1.speedtest.jsinfo.net:8080" />
<server url="http://speedtest1.sdc.sercomm.com:8080/speedtest/upload.php" lat="34.2600" lon="117.2100" name="Suzhou" country="China" cc="CN" sponsor="sercomm" id="31648"  host="speedtest1.sdc.sercomm.com:8080" />
<server url="http://speedtest.zjmobile.com:8080/speedtest/upload.php" lat="32.2069" lon="119.4490" name="ZhenJiang" country="China" cc="CN" sponsor="China Mobile JiangSu 5G" id="17320"  host="speedtest.zjmobile.com:8080" />
<server url="http://speedtest3.js.chinamobile.com:8080/speedtest/upload.php" lat="31.8112" lon="119.9741" name="ChangZhou" country="China" cc="CN" sponsor="China Mobile 5G" id="21845"  host="speedtest3.js.chinamobile.com:8080" />
<server url="http://ltetest1.139site.com:8080/speedtest/upload.php" lat="30.2500" lon="120.1667" name="Hangzhou" country="China" cc="CN" sponsor="China Mobile Group Zhejiang Co.,Ltd" id="4647"  host="ltetest1.139site.com:8080" />
<server url="http://122.229.136.10:8080/speedtest/upload.php" lat="30.2500" lon="120.1667" name="Hangzhou" country="China" cc="CN" sponsor="China Telecom ZheJiang Branch" id="7509"  host="122.229.136.10:8080" />
<server url="http://cmnet-speed.com:8080/speedtest/upload.php" lat="31.5667" lon="120.3000" name="Wuxi" country="China" cc="CN" sponsor="China Mobile 5G" id="26850"  host="cmnet-speed.com:8080" />
<server url="http://speedtest3.sd.huawei.com:8080/speedtest/upload.php" lat="35.1047" lon="118.3564" name="Linyi" country="China" cc="CN" sponsor="ShanDong CMCC 5G" id="27151"  host="speedtest3.sd.huawei.com:8080" />
<server url="http://4glianyungang1.speedtest.jsinfo.net:8080/speedtest/upload.php" lat="34.6000" lon="119.1667" name="Lianyungang" country="China" cc="CN" sponsor="China Telecom JiangSu 5G" id="5317"  host="4glianyungang1.speedtest.jsinfo.net:8080" />
<server url="http://speedtest-dku.oit.duke.edu:8080/speedtest/upload.php" lat="31.3856" lon="120.9807" name="Kunshan" country="China" cc="CN" sponsor="Duke Kunshan University" id="30852"  host="speedtest-dku.oit.duke.edu:8080" />
<server url="http://xatest.wo-xa.com:8080/speedtest/upload.php" lat="34.2667" lon="108.9000" name="Xi'an" country="China" cc="CN" sponsor="Xi'an branch,Chinaunicom" id="4863"  host="xatest.wo-xa.com:8080" />
<server url="http://speedtest.one-punch.win:8080/speedtest/upload.php" lat="34.2667" lon="108.9000" name="Xi'an" country="China" cc="CN" sponsor="陕西移动5G" id="29105"  host="speedtest.one-punch.win:8080" />
<server url="http://speedtest1.sn.chinamobile.com:8080/speedtest/upload.php" lat="34.3416" lon="108.9398" name="xi‘an" country="China" cc="CN" sponsor="Shaanxi china mobile" id="26380"  host="speedtest1.sn.chinamobile.com:8080" />
<server url="http://speedtest.shunicomtest.com:8080/speedtest/upload.php" lat="31.2000" lon="121.5000" name="Shanghai" country="China" cc="CN" sponsor="China Unicom" id="21005"  host="speedtest.shunicomtest.com:8080" />
<server url="http://speedtest1.online.sh.cn:8080/speedtest/upload.php" lat="31.2000" lon="121.5000" name="Shanghai" country="China" cc="CN" sponsor="China Telecom" id="3633"  host="speedtest1.online.sh.cn:8080" />
<server url="http://cmshqzst.com:8080/speedtest/upload.php" lat="31.2000" lon="121.5000" name="Shanghai" country="China" cc="CN" sponsor="SH-ChinaMobile" id="30154"  host="cmshqzst.com:8080" />
<server url="http://5g.shunicomtest.com:8080/speedtest/upload.php" lat="31.2000" lon="121.5000" name="ShangHai" country="China" cc="CN" sponsor="China Unicom 5G" id="24447"  host="5g.shunicomtest.com:8080" />
<server url="http://speedtest4.sh.chinamobile.com:8080/speedtest/upload.php" lat="31.2000" lon="121.5000" name="Shanghai" country="China" cc="CN" sponsor="Chinamobile-5G" id="25637"  host="speedtest4.sh.chinamobile.com:8080" />
<server url="http://upload1.testspeed.kaopuyun.com:8080/speedtest/upload.php" lat="26.0761" lon="119.3064" name="Fuzhou" country="China" cc="CN" sponsor="China Unicom FuJian" id="4884"  host="upload1.testspeed.kaopuyun.com:8080" />
<server url="http://speedtest1.fj.chinamobile.com:8080/speedtest/upload.php" lat="26.0761" lon="119.3064" name="Fuzhou" country="China" cc="CN" sponsor="Fuzhou China Mobile,Fujian" id="16171"  host="speedtest1.fj.chinamobile.com:8080" />
<server url="http://ltetest3.139site.com:8080/speedtest/upload.php" lat="29.8667" lon="121.5500" name="Ningbo" country="China" cc="CN" sponsor="China Mobile Zhejiang 5G" id="6715"  host="ltetest3.139site.com:8080" />
<server url="http://jnltwy.com:8080/speedtest/upload.php" lat="36.6667" lon="116.9833" name="Jinan" country="China" cc="CH" sponsor="China unicom Jinan branch" id="5039"  host="jnltwy.com:8080" />
<server url="http://5g.unicomjnwy.com:8080/speedtest/upload.php" lat="36.6667" lon="116.9833" name="Jinan" country="China" cc="CN" sponsor="Shandong Unicom 5G" id="26180"  host="5g.unicomjnwy.com:8080" />
<server url="http://speedtest2.sd.huawei.com:8080/speedtest/upload.php" lat="36.6667" lon="116.9833" name="Jinan" country="China" cc="CN" sponsor="ShanDong CMCC 5G" id="25881"  host="speedtest2.sd.huawei.com:8080" />
<server url="http://speedtest.cqwin.com:8080/speedtest/upload.php" lat="29.5583" lon="106.5667" name="Chongqing" country="China" cc="CN" sponsor="China Unicom" id="31985"  host="speedtest.cqwin.com:8080" />
<server url="http://speedtest2.cq.chinamobile.com:8080/speedtest/upload.php" lat="29.5583" lon="106.5667" name="Chongqing" country="CN" cc="CN" sponsor="Chongqing Mobile Company" id="17584"  host="speedtest2.cq.chinamobile.com:8080" />
<server url="http://speed.cqtelecom.com.cn:8080/speedtest/upload.php" lat="29.5583" lon="106.5667" name="Chongqing" country="China" cc="CN" sponsor="China Telecom" id="19076"  host="speed.cqtelecom.com.cn:8080" />
<server url="http://speedtest1.cqccn.com:8080/speedtest/upload.php" lat="29.5583" lon="106.5667" name="Chongqing" country="China" cc="CN" sponsor="CCN" id="5530"  host="speedtest1.cqccn.com:8080" />
<server url="http://testsx.njgean.com:8080/speedtest/upload.php" lat="37.8694" lon="112.5603" name="Taiyuan" country="China" cc="CN" sponsor="shanxi CMCC 5G" id="26501"  host="testsx.njgean.com:8080" />
<server url="http://speedtest1.he.chinamobile.com:8080/speedtest/upload.php" lat="38.0428" lon="114.5149" name="Shijiazhuang" country="CN" cc="CN" sponsor="chinamobile, hebei" id="17223"  host="speedtest1.he.chinamobile.com:8080" />
<server url="http://speedtest1.sd.huawei.com:8080/speedtest/upload.php" lat="36.0671" lon="120.3826" name="Qingdao" country="China" cc="CN" sponsor="ShanDong CMCC 5G" id="27100"  host="speedtest1.sd.huawei.com:8080" />
<server url="http://speedtest1.gzuni.com:8080/speedtest/upload.php" lat="23.1333" lon="113.2667" name="Guangzhou" country="China" cc="CN" sponsor="Guangzhou Unicom 5G" id="26678"  host="speedtest1.gzuni.com:8080" />
<server url="http://speedtest1.gd.chinamobile.com:8080/speedtest/upload.php" lat="23.1333" lon="113.2667" name="Guangzhou" country="China" cc="CN" sponsor="China Mobile,Guangdong" id="6611"  host="speedtest1.gd.chinamobile.com:8080" />
<server url="http://www.gdspeedtest.com:8080/speedtest/upload.php" lat="23.1333" lon="113.2667" name="Guangzhou" country="China" cc="CN" sponsor="ChinaTelecom 5G" id="27594"  host="www.gdspeedtest.com:8080" />
<server url="http://speedtest1.gz.chinamobile.com:8080/speedtest/upload.php" lat="26.6500" lon="106.6333" name="Guiyang" country="China" cc="CN" sponsor="China Mobile,GuiZhou" id="16398"  host="speedtest1.gz.chinamobile.com:8080" />
<server url="http://speedtest.75510010.com:8080/speedtest/upload.php" lat="22.5333" lon="114.1333" name="ShenZhen" country="China" cc="CN" sponsor="ShenZhen Unicom" id="16192"  host="speedtest.75510010.com:8080" />
<server url="http://speedtest3.gd.chinamobile.com:8080/speedtest/upload.php" lat="22.5333" lon="114.1333" name="Shenzhen" country="China" cc="CN" sponsor="China Mobile,Guangdong" id="4515"  host="speedtest3.gd.chinamobile.com:8080" />
<server url="http://5gcesu.gdzsyd.cn:8080/speedtest/upload.php" lat="22.5176" lon="113.3928" name="Zhongshan" country="China" cc="CN" sponsor="GMCC" id="31520"  host="5gcesu.gdzsyd.cn:8080" />
<server url="http://csl2.hkspeedtest.com:8080/speedtest/upload.php" lat="22.4423" lon="114.1655" name="Tai Po" country="Hong Kong" cc="HK" sponsor="CSL" id="14903"  host="csl2.hkspeedtest.com:8080" />
<server url="http://hkg02.speedtest.rfchost.com:8080/speedtest/upload.php" lat="22.3964" lon="114.1095" name="Hong Kong" country="Hong Kong" cc="HK" sponsor="Shanghai Huajuan Information Technology Co., Ltd." id="22991"  host="hkg02.speedtest.rfchost.com:8080" />
<server url="http://ookla-speedtest.hgconair.hgc.com.hk:8080/speedtest/upload.php" lat="22.3771" lon="114.1974" name="Shatin" country="Hong Kong" cc="HK" sponsor="HGC Global Communications Limited" id="16176"  host="ookla-speedtest.hgconair.hgc.com.hk:8080" />
<server url="http://speedtest.wproserve.com:8080/speedtest/upload.php" lat="22.3704" lon="114.1234" name="New Territories" country="Hong Kong" cc="HK" sponsor="W Professional Services Limited" id="14429"  host="speedtest.wproserve.com:8080" />
<server url="http://csl.hkspeedtest.com:8080/speedtest/upload.php" lat="22.3668" lon="114.1302" name="Kwai Chung" country="Hong Kong" cc="HK" sponsor="CSL" id="13538"  host="csl.hkspeedtest.com:8080" />
<server url="http://tyv3-1.speedtest.idv.tw:8080/speedtest/upload.php" lat="25.0764" lon="121.2239" name="Taoyuan" country="Taiwan" cc="TW" sponsor="Chief Telecom" id="4938"  host="tyv3-1.speedtest.idv.tw:8080" />
<server url="http://sptty1.taiwanmobile.com:8080/speedtest/upload.php" lat="25.0764" lon="121.2239" name="Taoyuan" country="Taiwan" cc="TW" sponsor="Taiwan Mobile" id="11702"  host="sptty1.taiwanmobile.com:8080" />
<server url="http://ty-speedtest.bbtv.tw:8080/speedtest/upload.php" lat="25.0764" lon="121.2239" name="Taoyuan" country="Taiwan" cc="TW" sponsor="CNS" id="24462"  host="ty-speedtest.bbtv.tw:8080" />
<server url="http://ty1.chtm.hinet.net:8080/speedtest/upload.php" lat="25.0764" lon="121.2239" name="Taoyuan" country="Taiwan" cc="TW" sponsor="Chunghwa Mobile" id="18452"  host="ty1.chtm.hinet.net:8080" />
<server url="http://srv6.speedtest.aptg.com.tw:8080/speedtest/upload.php" lat="25.0764" lon="121.2239" name="Taoyuan" country="Taiwan" cc="TW" sponsor="Asia Pacific Telecom" id="29107"  host="srv6.speedtest.aptg.com.tw:8080" />
<server url="http://fetkgx1.seed.net.tw:8080/speedtest/upload.php" lat="24.8347" lon="120.9934" name="Zhubei City" country="Taiwan" cc="TW" sponsor="FarEasTone Telecom" id="17206"  host="fetkgx1.seed.net.tw:8080" />
<server url="http://hcv3-1.speedtest.idv.tw:8080/speedtest/upload.php" lat="24.8167" lon="120.9833" name="Hsinchu" country="Taiwan" cc="TW" sponsor="Chief Telecom" id="4939"  host="hcv3-1.speedtest.idv.tw:8080" />
<server url="http://hc1.chtm.hinet.net:8080/speedtest/upload.php" lat="24.8167" lon="120.9833" name="Hsinchu" country="Taiwan" cc="TW" sponsor="Chunghwa Mobile" id="18450"  host="hc1.chtm.hinet.net:8080" />
<server url="http://srv8.speedtest.aptg.com.tw:8080/speedtest/upload.php" lat="24.8167" lon="120.9833" name="Hsinchu" country="Taiwan" cc="TW" sponsor="Asia Pacific Telecom" id="29109"  host="srv8.speedtest.aptg.com.tw:8080" />
<server url="http://speedtest05.fpt.vn:8080/speedtest/upload.php" lat="22.2700" lon="114.2400" name="Chai Wan" country="Hong Kong" cc="CN" sponsor="FPT Telecom" id="18745"  host="speedtest05.fpt.vn:8080" />
<server url="http://www.suntechspeedtest.com:8080/speedtest/upload.php" lat="22.2500" lon="114.1667" name="Hong Kong" country="China" cc="HK" sponsor="STC" id="1536"  host="www.suntechspeedtest.com:8080" />
<server url="http://speedtesthk.gemnet.mn:8080/speedtest/upload.php" lat="22.2500" lon="114.1667" name="Hong Kong" country="Hong Kong" cc="HK" sponsor="Gemnet LLC" id="21182"  host="speedtesthk.gemnet.mn:8080" />
<server url="http://shenron.smartone.com:8080/speedtest/upload.php" lat="22.2500" lon="114.1667" name="Hong Kong" country="China" cc="HK" sponsor="SmarTone" id="19036"  host="shenron.smartone.com:8080" />
<server url="http://hk.ap.speedtest.i3d.net:8080/speedtest/upload.php" lat="22.2500" lon="114.1667" name="Hong Kong" country="Hong Kong" cc="HK" sponsor="i3D.net" id="22126"  host="hk.ap.speedtest.i3d.net:8080" />
<server url="http://speedtest.telin.hk:8080/speedtest/upload.php" lat="22.2500" lon="114.1667" name="Hong Kong" country="Hong Kong" cc="HK" sponsor="Telin" id="26461"  host="speedtest.telin.hk:8080" />
<server url="http://speedtest.website-solution.net:8080/speedtest/upload.php" lat="22.2500" lon="114.1667" name="Hong Kong" country="China" cc="HK" sponsor="Website Solution Limited" id="2993"  host="speedtest.website-solution.net:8080" />
<server url="http://hon.speedtest.gtt.net:8080/speedtest/upload.php" lat="22.2500" lon="114.1667" name="Hong Kong" country="Hong Kong" cc="HK" sponsor="GTT.net" id="24375"  host="hon.speedtest.gtt.net:8080" />
<server url="http://lg-hkg.fdcservers.net:8080/speedtest/upload.php" lat="22.2500" lon="114.1667" name="Hong Kong" country="Hong Kong" cc="HK" sponsor="fdcservers.net" id="28912"  host="lg-hkg.fdcservers.net:8080" />
<server url="http://fetml1.seed.net.tw:8080/speedtest/upload.php" lat="24.5712" lon="120.8154" name="Miaoli City" country="Taiwan" cc="TW" sponsor="Far EasTone Telecom" id="17185"  host="fetml1.seed.net.tw:8080" />
<server url="http://speedtest.mtel.mo:8080/speedtest/upload.php" lat="22.2047" lon="113.5552" name="Macau" country="Macau" cc="MO" sponsor="MTel" id="14791"  host="speedtest.mtel.mo:8080" />
<server url="http://202.75.250.35:8080/speedtest/upload.php" lat="22.2000" lon="113.5500" name="Macau" country="Macau" cc="MO" sponsor="SPEEDTEST-MO" id="6894"  host="202.75.250.35:8080" />
<server url="http://tstarntp1.vibo.net.tw:8080/speedtest/upload.php" lat="25.0111" lon="121.4458" name="New Taipei" country="Taiwan" cc="TW" sponsor="Taiwan Star Telecom Co., Ltd." id="5334"  host="tstarntp1.vibo.net.tw:8080" />
<server url="http://ntpv3-1.speedtest.idv.tw:8080/speedtest/upload.php" lat="25.0111" lon="121.4458" name="New Taipei" country="Taiwan" cc="TW" sponsor="Chief Telecom" id="4505"  host="ntpv3-1.speedtest.idv.tw:8080" />
<server url="http://ntp1.chtm.hinet.net:8080/speedtest/upload.php" lat="25.0111" lon="121.4458" name="New Taipei" country="Taiwan" cc="TW" sponsor="Chunghwa Mobile" id="18447"  host="ntp1.chtm.hinet.net:8080" />
<server url="http://ntpspt2.friday.tw:8080/speedtest/upload.php" lat="25.0111" lon="121.4458" name="New Taipei" country="Taiwan" cc="TW" sponsor="Friday Media" id="19211"  host="ntpspt2.friday.tw:8080" />
<server url="http://ntp-speedtest.bbtv.tw:8080/speedtest/upload.php" lat="25.0111" lon="121.4458" name="New Taipei" country="Taiwan" cc="TW" sponsor="CNS" id="24460"  host="ntp-speedtest.bbtv.tw:8080" />
<server url="http://srv5.speedtest.aptg.com.tw:8080/speedtest/upload.php" lat="25.0111" lon="121.4458" name="New Taipei" country="Taiwan" cc="TW" sponsor="Asia Pacific Telecom" id="29106"  host="srv5.speedtest.aptg.com.tw:8080" />
<server url="http://speedtest3.macau.ctm.net:8080/speedtest/upload.php" lat="22.1597" lon="113.5639" name="Taipa" country="Macau" cc="MO" sponsor="CTM" id="25176"  host="speedtest3.macau.ctm.net:8080" />
<server url="http://speedtest.digicentre.com:8080/speedtest/upload.php" lat="25.0170" lon="121.4628" name="New Taipei City" country="Taiwan" cc="TW" sponsor="Digicentre" id="19102"  host="speedtest.digicentre.com:8080" />
<server url="http://qw-ntpspt1.wifly.com.tw:8080/speedtest/upload.php" lat="25.0114" lon="121.4618" name="Banqiao" country="Taiwan" cc="TW" sponsor="WiFly" id="18422"  host="qw-ntpspt1.wifly.com.tw:8080" />
<server url="http://sky-speedtest.bbtv.tw:8080/speedtest/upload.php" lat="25.0114" lon="121.4618" name="Banqiao" country="Taiwan" cc="TW" sponsor="CNS" id="24461"  host="sky-speedtest.bbtv.tw:8080" />
<server url="http://fetsz1.seed.net.tw:8080/speedtest/upload.php" lat="24.9962" lon="121.4853" name="Zhonghe" country="TW" cc="TW" sponsor="FarEasTone Telecom" id="17265"  host="fetsz1.seed.net.tw:8080" />
<server url="http://tpv3-1.speedtest.idv.tw:8080/speedtest/upload.php" lat="25.0333" lon="121.5333" name="Taipei" country="Taiwan" cc="TW" sponsor="Chief Telecom" id="3967"  host="tpv3-1.speedtest.idv.tw:8080" />
<server url="http://spttp2.tfn.net.tw:8080/speedtest/upload.php" lat="25.0333" lon="121.5333" name="Taipei" country="Taiwan" cc="TW" sponsor="Taiwan Fixed Network" id="2133"  host="spttp2.tfn.net.tw:8080" />
<server url="http://tp-speedtest-1.twmbroadband.net:8080/speedtest/upload.php" lat="25.0333" lon="121.5333" name="Taipei" country="Taiwan" cc="TW" sponsor="TFN Media" id="23811"  host="tp-speedtest-1.twmbroadband.net:8080" />
<server url="http://speedtest1.taipeinet.com.tw:8080/speedtest/upload.php" lat="25.0333" lon="121.5333" name="Taipei" country="Taiwan" cc="TW" sponsor="Taipeinet" id="7429"  host="speedtest1.taipeinet.com.tw:8080" />
<server url="http://tp1.chtm.hinet.net:8080/speedtest/upload.php" lat="25.0333" lon="121.5333" name="Taipei" country="Taiwan" cc="TW" sponsor="Chunghwa Mobile" id="18445"  host="tp1.chtm.hinet.net:8080" />
<server url="http://tp-speedtest.bbtv.tw:8080/speedtest/upload.php" lat="25.0333" lon="121.5333" name="Taipei" country="Taiwan" cc="TW" sponsor="CNS" id="24429"  host="tp-speedtest.bbtv.tw:8080" />
<server url="http://ntp-sptest.kbro.com.tw:8080/speedtest/upload.php" lat="25.0333" lon="121.5333" name="Taipei" country="Taiwan" cc="TW" sponsor="kbro Co., Ltd." id="2181"  host="ntp-sptest.kbro.com.tw:8080" />
<server url="http://qw-tpspt1.wifly.com.tw:8080/speedtest/upload.php" lat="25.0333" lon="121.5333" name="Taipei" country="Taiwan" cc="TW" sponsor="WiFly" id="18421"  host="qw-tpspt1.wifly.com.tw:8080" />
<server url="http://tstartp1.vibo.net.tw:8080/speedtest/upload.php" lat="25.0333" lon="121.5333" name="Taipei" country="Taiwan" cc="TW" sponsor="Taiwan Star Telecom Co., Ltd." id="30059"  host="tstartp1.vibo.net.tw:8080" />
<server url="http://lg-speedtest.bbtv.tw:8080/speedtest/upload.php" lat="25.0689" lon="121.5909" name="Neihu District" country="Taiwan" cc="TW" sponsor="CNS" id="29716"  host="lg-speedtest.bbtv.tw:8080" />
<server url="http://speedtest.taifo.com.tw:8080/speedtest/upload.php" lat="25.0374" lon="121.5635" name="Taipei" country="Taiwan" cc="TW" sponsor="TAIFO Taiwan" id="13506"  host="speedtest.taifo.com.tw:8080" />
<server url="http://spttp1.kbro.com.tw:8080/speedtest/upload.php" lat="25.0329" lon="121.5654" name="Taipei" country="Taiwan" cc="TW" sponsor="Kbro" id="14036"  host="spttp1.kbro.com.tw:8080" />
<server url="http://fetkl1.seed.net.tw:8080/speedtest/upload.php" lat="25.1276" lon="121.7392" name="Keelung City" country="Taiwan" cc="TW" sponsor="FarEasTone Telecom" id="17205"  host="fetkl1.seed.net.tw:8080" />
<server url="http://klv3-1.speedtest.idv.tw:8080/speedtest/upload.php" lat="25.1276" lon="121.7392" name="Keelung" country="Taiwan" cc="TW" sponsor="Chief Telecom" id="18475"  host="klv3-1.speedtest.idv.tw:8080" />
<server url="http://kl-speedtest.bbtv.tw:8080/speedtest/upload.php" lat="25.1276" lon="121.7392" name="Keelung" country="Taiwan" cc="TW" sponsor="CNS" id="24974"  host="kl-speedtest.bbtv.tw:8080" />
<server url="http://spt.oms.fcu.edu.tw:8080/speedtest/upload.php" lat="24.1500" lon="120.6667" name="Taichung" country="Taiwan" cc="TW" sponsor="Feng Chia University" id="7076"  host="spt.oms.fcu.edu.tw:8080" />
<server url="http://custom.tbcnet.net.tw:8080/speedtest/upload.php" lat="24.1500" lon="120.6667" name="Taichung" country="Taiwan" cc="TW" sponsor="TBC" id="12000"  host="custom.tbcnet.net.tw:8080" />
<server url="http://tcv3-1.speedtest.idv.tw:8080/speedtest/upload.php" lat="24.1500" lon="120.6667" name="Taichung" country="Taiwan" cc="TW" sponsor="Chief Telecom" id="4940"  host="tcv3-1.speedtest.idv.tw:8080" />
<server url="http://tc1.chtm.hinet.net:8080/speedtest/upload.php" lat="24.1500" lon="120.6667" name="Taichung" country="Taiwan" cc="TW" sponsor="Chunghwa Mobile" id="18456"  host="tc1.chtm.hinet.net:8080" />
<server url="http://speed1.asia.edu.tw:8080/speedtest/upload.php" lat="24.1500" lon="120.6667" name="Taichung" country="Taiwan" cc="TW" sponsor="Asia University, Taiwan" id="6391"  host="speed1.asia.edu.tw:8080" />
<server url="http://61.60.226.1:8080/speedtest/upload.php" lat="24.1500" lon="120.6667" name="Taichung" country="Taiwan" cc="TW" sponsor="TINP" id="7469"  host="61.60.226.1:8080" />
<server url="http://tc-speedtest-1.twmbroadband.net:8080/speedtest/upload.php" lat="24.1500" lon="120.6667" name="Taichung" country="Taiwan" cc="TW" sponsor="TFN Media" id="12585"  host="tc-speedtest-1.twmbroadband.net:8080" />
<server url="http://spttc1.taiwanmobile.com:8080/speedtest/upload.php" lat="24.1500" lon="120.6667" name="Taichung" country="Taiwan" cc="TW" sponsor="Taiwan Mobile" id="11707"  host="spttc1.taiwanmobile.com:8080" />
<server url="http://speedtest.thu.edu.tw:8080/speedtest/upload.php" lat="24.1500" lon="120.6667" name="Taichung" country="Taiwan" cc="TW" sponsor="Tunghai University" id="6597"  host="speedtest.thu.edu.tw:8080" />
<server url="http://chv3-1.speedtest.idv.tw:8080/speedtest/upload.php" lat="23.9333" lon="120.5333" name="Changhua" country="Taiwan" cc="TW" sponsor="Chief Telecom" id="5164"  host="chv3-1.speedtest.idv.tw:8080" />
<server url="http://ch1.chtm.hinet.net:8080/speedtest/upload.php" lat="23.9333" lon="120.5333" name="Changhua" country="Taiwan" cc="TW" sponsor="Chunghwa Mobile" id="18611"  host="ch1.chtm.hinet.net:8080" />
<server url="http://srv9.speedtest.aptg.com.tw:8080/speedtest/upload.php" lat="23.9333" lon="120.5333" name="Changhua" country="Taiwan" cc="TW" sponsor="Asia Pacific Telecom" id="29110"  host="srv9.speedtest.aptg.com.tw:8080" />
<server url="http://speedtest.htcvive.io:8080/speedtest/upload.php" lat="23.9333" lon="120.5333" name="Changhua" country="Taiwan" cc="TW" sponsor="HTC-Edge" id="30902"  host="speedtest.htcvive.io:8080" />
<server url="http://fetyl1.seed.net.tw:8080/speedtest/upload.php" lat="23.9596" lon="120.5855" name="Yuanlin City" country="Taiwan" cc="TW" sponsor="FarEasTone Telecom" id="17204"  host="fetyl1.seed.net.tw:8080" />
<server url="http://fetnt1.seed.net.tw:8080/speedtest/upload.php" lat="23.9180" lon="120.6775" name="Nantou City" country="Taiwan" cc="TW" sponsor="FarEasTone Telecom" id="17189"  host="fetnt1.seed.net.tw:8080" />
<server url="http://speedtest1.wangjia.net:8080/speedtest/upload.php" lat="30.6586" lon="104.0647" name="Chengdu" country="China" cc="CN" sponsor="China Unicom" id="2461"  host="speedtest1.wangjia.net:8080" />
<server url="http://speedtest2.sc.chinamobile.com:8080/speedtest/upload.php" lat="30.6586" lon="104.0647" name="Chengdu" country="China" cc="CN" sponsor="China Mobile Group Sichuan Co.,Ltd." id="24337"  host="speedtest2.sc.chinamobile.com:8080" />
<server url="http://speedtest2.sc.189.cn:8080/speedtest/upload.php" lat="30.6586" lon="104.0647" name="Chengdu" country="China" cc="CN" sponsor="四川电信" id="29026"  host="speedtest2.sc.189.cn:8080" />
<server url="http://speedtest1.sc.189.cn:8080/speedtest/upload.php" lat="30.5728" lon="104.0668" name="成都" country="China" cc="CN" sponsor="四川电信" id="29071"  host="speedtest1.sc.189.cn:8080" />
<server url="http://dlv3-1.speedtest.idv.tw:8080/speedtest/upload.php" lat="23.7078" lon="120.5409" name="Douliu" country="Taiwan" cc="TW" sponsor="Chief Telecom" id="18478"  host="dlv3-1.speedtest.idv.tw:8080" />
<server url="http://sptdl1.taiwanmobile.com:8080/speedtest/upload.php" lat="23.7078" lon="120.5409" name="Douliu" country="Taiwan" cc="TW" sponsor="Taiwan Mobile" id="11699"  host="sptdl1.taiwanmobile.com:8080" />
<server url="http://speedtest3.online.tj.cn:8080/speedtest/upload.php" lat="39.1333" lon="117.1833" name="TianJin" country="China" cc="CN" sponsor="ChinaUnicom-5G" id="27154"  host="speedtest3.online.tj.cn:8080" />
<server url="http://speedtest1.ossplanet.net:8080/speedtest/upload.php" lat="23.9933" lon="120.9647" name="Puli Township" country="Taiwan" cc="TW" sponsor="OSS Planet" id="10522"  host="speedtest1.ossplanet.net:8080" />
<server url="http://seedsptyl1.seed.net.tw:8080/speedtest/upload.php" lat="24.6938" lon="121.7750" name="Yilan" country="Taiwan" cc="TW" sponsor="SEEDNET" id="8630"  host="seedsptyl1.seed.net.tw:8080" />
<server url="http://ylv3-1.speedtest.idv.tw:8080/speedtest/upload.php" lat="24.6938" lon="121.7750" name="Yilan" country="Taiwan" cc="TW" sponsor="Chief Telecom" id="4947"  host="ylv3-1.speedtest.idv.tw:8080" />
<server url="http://yl1.chtm.hinet.net:8080/speedtest/upload.php" lat="24.6938" lon="121.7750" name="Yilan" country="Taiwan" cc="TW" sponsor="Chunghwa Mobile" id="18606"  host="yl1.chtm.hinet.net:8080" />
<server url="http://srv7.speedtest.aptg.com.tw:8080/speedtest/upload.php" lat="24.6938" lon="121.7750" name="Yilan" country="Taiwan" cc="TW" sponsor="Asia Pacific Telecom" id="29108"  host="srv7.speedtest.aptg.com.tw:8080" />
<server url="http://ntv3-1.speedtest.idv.tw:8080/speedtest/upload.php" lat="23.9610" lon="120.9719" name="Nantou" country="Taiwan" cc="TW" sponsor="Chief Telecom" id="18477"  host="ntv3-1.speedtest.idv.tw:8080" />
<server url="http://srv4.speedtest.aptg.com.tw:8080/speedtest/upload.php" lat="23.9610" lon="120.9719" name="Nantou" country="Taiwan" cc="TW" sponsor="Asia Pacific Telecom" id="27752"  host="srv4.speedtest.aptg.com.tw:8080" />
<server url="http://cyv3-1.speedtest.idv.tw:8080/speedtest/upload.php" lat="23.4801" lon="120.4491" name="Chiayi" country="Taiwan" cc="TW" sponsor="Chief Telecom" id="18479"  host="cyv3-1.speedtest.idv.tw:8080" />
<server url="http://fetcy1.seed.net.tw:8080/speedtest/upload.php" lat="23.4801" lon="120.4491" name="Chiayi City" country="TW" cc="TW" sponsor="FarEasTone Telecom" id="17188"  host="fetcy1.seed.net.tw:8080" />
<server url="http://speed01.cyccatv.net.tw:8080/speedtest/upload.php" lat="23.4801" lon="120.4491" name="Chiayi" country="Taiwan" cc="TW" sponsor="CYC" id="31630"  host="speed01.cyccatv.net.tw:8080" />
<server url="http://hyv3-1.speedtest.idv.tw:8080/speedtest/upload.php" lat="23.3120" lon="120.3040" name="Hsinying" country="Taiwan" cc="TW" sponsor="Chief Telecom" id="4945"  host="hyv3-1.speedtest.idv.tw:8080" />
<server url="http://hy1.chtm.hinet.net:8080/speedtest/upload.php" lat="23.3120" lon="120.3040" name="Hsinying" country="Taiwan" cc="TW" sponsor="Chunghwa Mobile" id="18609"  host="hy1.chtm.hinet.net:8080" />
<server url="http://speedtest1.tj.chinamobile.com:8080/speedtest/upload.php" lat="39.3434" lon="117.3616" name="Tianjin" country="CN" cc="CN" sponsor="China Mobile TianJin-5G" id="17184"  host="speedtest1.tj.chinamobile.com:8080" />
<server url="http://tnspt1.friday.tw:8080/speedtest/upload.php" lat="22.9833" lon="120.1833" name="Tainan" country="Taiwan" cc="TW" sponsor="Friday Media" id="19032"  host="tnspt1.friday.tw:8080" />
<server url="http://tn-speedtest.bbtv.tw:8080/speedtest/upload.php" lat="22.9833" lon="120.1833" name="Tainan" country="Taiwan" cc="TW" sponsor="CNS" id="24377"  host="tn-speedtest.bbtv.tw:8080" />
<server url="http://tnv3-1.speedtest.idv.tw:8080/speedtest/upload.php" lat="22.9833" lon="120.1833" name="Tainan" country="Taiwan" cc="TW" sponsor="Chief Telecom" id="4413"  host="tnv3-1.speedtest.idv.tw:8080" />
<server url="http://tn1.chtm.hinet.net:8080/speedtest/upload.php" lat="22.9833" lon="120.1833" name="Tainan" country="Taiwan" cc="TW" sponsor="Chunghwa Mobile" id="18607"  host="tn1.chtm.hinet.net:8080" />
<server url="http://tn-speedtest-1.twmbroadband.net:8080/speedtest/upload.php" lat="22.9833" lon="120.1833" name="Tainan" country="Taiwan" cc="TW" sponsor="TFN Media" id="12589"  host="tn-speedtest-1.twmbroadband.net:8080" />
<server url="http://hlv3-1.speedtest.idv.tw:8080/speedtest/upload.php" lat="23.9722" lon="121.6064" name="Hualien" country="Taiwan" cc="TW" sponsor="Chief Telecom" id="4948"  host="hlv3-1.speedtest.idv.tw:8080" />
<server url="http://spthl1.seed.net.tw:8080/speedtest/upload.php" lat="23.9722" lon="121.6064" name="Hualien" country="Taiwan" cc="TW" sponsor="Far EasTone Telecommunications Co., Ltd" id="2595"  host="spthl1.seed.net.tw:8080" />
<server url="http://hl1.chtm.hinet.net:8080/speedtest/upload.php" lat="23.9722" lon="121.6064" name="Hualien" country="Taiwan" cc="TW" sponsor="Chunghwa Mobile" id="18449"  host="hl1.chtm.hinet.net:8080" />
<server url="http://speedtest1.gx.chinamobile.com:8080/speedtest/upload.php" lat="22.8167" lon="108.3167" name="Nanning" country="China" cc="CN" sponsor="GX ChinaMobile" id="15863"  host="speedtest1.gx.chinamobile.com:8080" />
<server url="http://speed4.gxmenjin.com:8080/speedtest/upload.php" lat="22.8167" lon="108.3167" name="Nanning" country="China" cc="CN" sponsor="GX-Telecom" id="27810"  host="speed4.gxmenjin.com:8080" />
<server url="http://speedtest.bmcc.com.cn:8080/speedtest/upload.php" lat="39.9139" lon="116.3917" name="Beijing" country="China" cc="CN" sponsor="China Mobile Group Beijing Co.Ltd" id="25858"  host="speedtest.bmcc.com.cn:8080" />
<server url="http://www2.unicomtest.com:8080/speedtest/upload.php" lat="39.9139" lon="116.3917" name="Beijing" country="China" cc="CN" sponsor="Beijing Unicom" id="5145"  host="www2.unicomtest.com:8080" />
<server url="http://catest.buct.edu.cn:8080/speedtest/upload.php" lat="39.9139" lon="116.3917" name="Beijing" country="China" cc="CN" sponsor="Beijing University Of Chemical Technology" id="31053"  host="catest.buct.edu.cn:8080" />
<server url="http://bj3.unicomtest.com:8080/speedtest/upload.php" lat="39.9139" lon="116.3917" name="Beijing" country="China" cc="CN" sponsor="Beijing Broadband Network" id="5505"  host="bj3.unicomtest.com:8080" />
<server url="http://speedtest25.jillbanging.com:8080/speedtest/upload.php" lat="39.9139" lon="116.3917" name="Beijing" country="China" cc="CN" sponsor="China Telecom 5G" id="27377"  host="speedtest25.jillbanging.com:8080" />
<server url="http://221.199.9.35:8080/speedtest/upload.php" lat="36.6000" lon="105.3200" name="Ningxia" country="China" cc="CN" sponsor="Chinaunicom Ningxia branch" id="5509"  host="221.199.9.35:8080" />
<server url="http://ks-speedtest.bbtv.tw:8080/speedtest/upload.php" lat="22.6333" lon="120.2667" name="Kaohsiung" country="Taiwan" cc="TW" sponsor="CNS" id="8968"  host="ks-speedtest.bbtv.tw:8080" />
<server url="http://khv3-1.speedtest.idv.tw:8080/speedtest/upload.php" lat="22.6333" lon="120.2667" name="Kaohsiung" country="Taiwan" cc="TW" sponsor="Chief Telecom" id="4941"  host="khv3-1.speedtest.idv.tw:8080" />
<server url="http://sptkh1.taiwanmobile.com:8080/speedtest/upload.php" lat="22.6333" lon="120.2667" name="Kaohsiung" country="Taiwan" cc="TW" sponsor="Taiwan Mobile" id="11713"  host="sptkh1.taiwanmobile.com:8080" />
<server url="http://qw-ksspt1.wifly.com.tw:8080/speedtest/upload.php" lat="22.6333" lon="120.2667" name="Kaohsiung" country="Taiwan" cc="TW" sponsor="WiFly" id="18426"  host="qw-ksspt1.wifly.com.tw:8080" />
<server url="http://kh1.chtm.hinet.net:8080/speedtest/upload.php" lat="22.6333" lon="120.2667" name="Kaohsiung" country="Taiwan" cc="TW" sponsor="Chunghwa Mobile" id="18458"  host="kh1.chtm.hinet.net:8080" />
<server url="http://ptv3-1.speedtest.idv.tw:8080/speedtest/upload.php" lat="22.6761" lon="120.4942" name="Pingtung" country="Taiwan" cc="TW" sponsor="Chief Telecom" id="4946"  host="ptv3-1.speedtest.idv.tw:8080" />
<server url="http://pt1.chtm.hinet.net:8080/speedtest/upload.php" lat="22.6761" lon="120.4942" name="Pingtung" country="Taiwan" cc="TW" sponsor="Chunghwa Mobile" id="18608"  host="pt1.chtm.hinet.net:8080" />
<server url="http://ttv3-1.speedtest.idv.tw:8080/speedtest/upload.php" lat="22.7546" lon="121.1138" name="Taitung" country="Taiwan" cc="TW" sponsor="Chief Telecom" id="18480"  host="ttv3-1.speedtest.idv.tw:8080" />
<server url="http://speedtest2.ln.chinamobile.com:8080/speedtest/upload.php" lat="38.9140" lon="121.6147" name="Dalian" country="China" cc="CN" sponsor="ChinaMobile, Liaoning Branch,Dalian" id="25728"  host="speedtest2.ln.chinamobile.com:8080" />
<server url="http://lanzhouunicom.com:8080/speedtest/upload.php" lat="36.0333" lon="103.8000" name="Lanzhou" country="China" cc="CN" sponsor="China Unicom Lanzhou Branch Co.Ltd" id="4690"  host="lanzhouunicom.com:8080" />
<server url="http://speedtest1.gs.chinamobile.com:8080/speedtest/upload.php" lat="36.0333" lon="103.8000" name="Lanzhou" country="China" cc="CN" sponsor="Lanzhou,China Mobile,Gansu" id="16145"  host="speedtest1.gs.chinamobile.com:8080" />
<server url="http://speedtest.bajianjun.com:8080/speedtest/upload.php" lat="36.0333" lon="103.8000" name="Lanzhou" country="China" cc="CN" sponsor="China Telecom" id="3973"  host="speedtest.bajianjun.com:8080" />
<server url="http://speedtest.nx.chinamobile.com:8080/speedtest/upload.php" lat="38.4872" lon="106.2309" name="Yinchuan" country="China" cc="CN" sponsor="ChinaMobile,Ningxia" id="26940"  host="speedtest.nx.chinamobile.com:8080" />
<server url="http://speedtest1.nx.chinamobile.com:8080/speedtest/upload.php" lat="38.4872" lon="106.2309" name="Yinchuan city" country="China" cc="CN" sponsor="vixtel" id="31815"  host="speedtest1.nx.chinamobile.com:8080" />
<server url="http://speedtest4.nm.chinamobile.com:8080/speedtest/upload.php" lat="40.8424" lon="111.7500" name="Hohhot" country="China" cc="CN" sponsor="NeiMeng CMCC 5G" id="30232"  host="speedtest4.nm.chinamobile.com:8080" />
<server url="http://nmgspeedtest1.ffcs.cn:8080/speedtest/upload.php" lat="40.8424" lon="111.7500" name="Huhhot" country="China" cc="CN" sponsor="China Telecom Inner Mongolia Branch-1" id="24012"  host="nmgspeedtest1.ffcs.cn:8080" />
<server url="http://speedtest1.hi.chinamobile.com:8080/speedtest/upload.php" lat="20.0428" lon="110.3417" name="Haikou" country="China" cc="CN" sponsor="Chinamobile,Hainan" id="16503"  host="speedtest1.hi.chinamobile.com:8080" />
<server url="http://speedtest1.yncuc.net:8080/speedtest/upload.php" lat="25.0667" lon="102.6833" name="Kunming" country="China" cc="CN" sponsor="Yunnan Chinaunicom" id="5103"  host="speedtest1.yncuc.net:8080" />
<server url="http://speedtest1.yn.chinamobile.com:8080/speedtest/upload.php" lat="25.0667" lon="102.6833" name="Kunming" country="China" cc="CN" sponsor="ChinaMobile" id="26728"  host="speedtest1.yn.chinamobile.com:8080" />
<server url="http://speedtest.qh.chinamobile.com:8080/speedtest/upload.php" lat="36.6171" lon="101.7782" name="Xining" country="China" cc="CN" sponsor="qh_5g_speedtest" id="29083"  host="speedtest.qh.chinamobile.com:8080" />
<server url="http://speedtest1.vtn.com.vn:8080/speedtest/upload.php" lat="21.0285" lon="105.8542" name="Hanoi" country="Vietnam" cc="VN" sponsor="VNPT-NET" id="6085"  host="speedtest1.vtn.com.vn:8080" />
<server url="http://hnispeedtest.cmctelecom.vn:8080/speedtest/upload.php" lat="21.0285" lon="105.8542" name="Hanoi" country="Vietnam" cc="VN" sponsor="CMC Telecom" id="6342"  host="hnispeedtest.cmctelecom.vn:8080" />
<server url="http://speedtestkv1a.viettel.vn:8080/speedtest/upload.php" lat="21.0285" lon="105.8542" name="Hanoi" country="Vietnam" cc="VN" sponsor="Viettel Network" id="9903"  host="speedtestkv1a.viettel.vn:8080" />
<server url="http://speedtesthn.fpt.vn:8080/speedtest/upload.php" lat="21.0285" lon="105.8542" name="Hanoi" country="Vietnam" cc="VN" sponsor="FPT Telecom" id="2552"  host="speedtesthn.fpt.vn:8080" />
<server url="http://st1.mobifone.vn:8080/speedtest/upload.php" lat="21.0285" lon="105.8542" name="Hanoi" country="Vietnam" cc="VN" sponsor="MOBIFONE" id="9174"  host="st1.mobifone.vn:8080" />
<server url="http://vhn.vietpn.com:8080/speedtest/upload.php" lat="21.0285" lon="105.8542" name="Ha Noi" country="Viet Nam" cc="VN" sponsor="VIETPN CO, LTD" id="11430"  host="vhn.vietpn.com:8080" />
<server url="http://118.107.88.20:8080/speedtest/upload.php" lat="21.0285" lon="105.8542" name="Hanoi" country="Vietnam" cc="VN" sponsor="VTC DIGICOM" id="8156"  host="118.107.88.20:8080" />
<server url="http://speedtest.htc-itc.com.vn:8080/speedtest/upload.php" lat="21.0285" lon="105.8542" name="Hanoi" country="Viet Nam" cc="VN" sponsor="HTC-ITC" id="13374"  host="speedtest.htc-itc.com.vn:8080" />
<server url="http://hn1.speedtest.vietnamobile.com.vn:8080/speedtest/upload.php" lat="21.0285" lon="105.8542" name="Hanoi" country="Viet Nam" cc="VN" sponsor="Vietnamobile" id="16416"  host="hn1.speedtest.vietnamobile.com.vn:8080" />
<server url="http://supernet-hanoi.supernet.vn:8080/speedtest/upload.php" lat="21.0285" lon="105.8542" name="Hanoi" country="Vietnam" cc="VN" sponsor="Supernet-hanoi" id="10308"  host="supernet-hanoi.supernet.vn:8080" />
<server url="http://speedtest.netnam.vn:8080/speedtest/upload.php" lat="21.0285" lon="105.8542" name="Hanoi" country="Vietnam" cc="VN" sponsor="NetNam Corp" id="5774"  host="speedtest.netnam.vn:8080" />
<server url="http://speedtest-xg-oki.glbb.ne.jp:8080/speedtest/upload.php" lat="26.2122" lon="127.6792" name="Naha" country="Japan" cc="JP" sponsor="GLBB Japan" id="21118"  host="speedtest-xg-oki.glbb.ne.jp:8080" />
<server url="http://speedtest-xg-lq.glbb.ne.jp:8080/speedtest/upload.php" lat="26.2122" lon="127.6792" name="Naha City" country="Japan" cc="JP" sponsor="Lequios" id="30230"  host="speedtest-xg-lq.glbb.ne.jp:8080" />
<server url="http://speed.mydns.jp:8080/speedtest/upload.php" lat="26.1911" lon="127.7286" name="Haebaru" country="Japan" cc="JP" sponsor="haza" id="6581"  host="speed.mydns.jp:8080" />
<server url="http://sp7.atcc-gns.net:8080/speedtest/upload.php" lat="26.1202" lon="127.7025" name="Okinawa" country="Japan" cc="JP" sponsor="Allied Telesis Capital Corp." id="31181"  host="sp7.atcc-gns.net:8080" />
<server url="http://speedtest.kdatacenter.com:8080/speedtest/upload.php" lat="37.5833" lon="127.0000" name="Seoul" country="South Korea" cc="KR" sponsor="kdatacenter.com" id="6527"  host="speedtest.kdatacenter.com:8080" />
<server url="http://speedtest1.ln.chinamobile.com:8080/speedtest/upload.php" lat="41.7333" lon="123.8833" name="Shenyang" country="China" cc="CN" sponsor="ChinaMobile, Liaoning Branch" id="16167"  host="speedtest1.ln.chinamobile.com:8080" />
<server url="http://speed.extride.net:8080/speedtest/upload.php" lat="32.2100" lon="130.7626" name="Hitoyoshi" country="Japan" cc="JP" sponsor="extride inc" id="18709"  host="speed.extride.net:8080" />
<server url="http://speedtest3.nm.chinamobile.com:8080/speedtest/upload.php" lat="43.6529" lon="122.2434" name="Tongliao" country="China" cc="CN" sponsor="Neimeng CMCC 5G" id="30293"  host="speedtest3.nm.chinamobile.com:8080" />
<server url="http://speedtest-bgo.skybroadband.com.ph:8080/upload.php" lat="16.4167" lon="120.6000" name="Baguio" country="Philippines" cc="PH" sponsor="Sky Fiber" id="25559"  host="speedtest-bgo.skybroadband.com.ph:8080" />
<server url="http://baguiocity.smart.com.ph:8080/speedtest/upload.php" lat="16.4023" lon="120.5960" name="Baguio City" country="Philippines" cc="PH" sponsor="Smart Communications Inc." id="14762"  host="baguiocity.smart.com.ph:8080" />
<server url="http://speedtestkv2dp1.viettel.vn:8080/speedtest/upload.php" lat="16.4637" lon="107.5909" name="Hue" country="Vietnam" cc="VN" sponsor="Viettel Network" id="27630"  host="speedtestkv2dp1.viettel.vn:8080" />
<server url="http://speedtest5.vtn.com.vn:8080/speedtest/upload.php" lat="16.0667" lon="108.2333" name="Da Nang" country="Vietnam" cc="VN" sponsor="VNPT-NET" id="6102"  host="speedtest5.vtn.com.vn:8080" />
<server url="http://vnmdngspt1.vietnamobile.com.vn:8080/speedtest/upload.php" lat="16.0667" lon="108.2333" name="Da Nang" country="VN" cc="VN" sponsor="Vietnamobile" id="16873"  host="vnmdngspt1.vietnamobile.com.vn:8080" />
<server url="http://speedtest.powernet.vn:8080/speedtest/upload.php" lat="16.0667" lon="108.2333" name="Da Nang" country="Vietnam" cc="VN" sponsor="PowerNet" id="19294"  host="speedtest.powernet.vn:8080" />
<server url="http://speedtestkv2a.viettel.vn:8080/speedtest/upload.php" lat="16.0667" lon="108.2333" name="Da Nang" country="Vietnam" cc="VN" sponsor="Viettel Network" id="10040"  host="speedtestkv2a.viettel.vn:8080" />
<server url="http://vdn.speedtest.vietpn.com:8080/speedtest/upload.php" lat="16.0667" lon="108.2333" name="Da Nang" country="Vietnam" cc="VN" sponsor="GIAM PING VIETPN.COM" id="19060"  host="vdn.speedtest.vietpn.com:8080" />
<server url="http://testspeed.cloudzone.vn:8080/speedtest/upload.php" lat="16.0544" lon="108.2022" name="Danang" country="Vietnam" cc="VN" sponsor="Cloudzone" id="30149"  host="testspeed.cloudzone.vn:8080" />
<server url="http://fiber.bangus.com:8080/speedtest/upload.php" lat="16.0433" lon="120.3333" name="Dagupan City" country="Philippines" cc="PH" sponsor="USATV One Inc" id="11886"  host="fiber.bangus.com:8080" />
<server url="http://speedtest.yarchang.com:8080/speedtest/upload.php" lat="21.6694" lon="100.0164" name="Mongla" country="Republic of the Union of Myanmar" cc="MM" sponsor="Yar Chang" id="31862"  host="speedtest.yarchang.com:8080" />
<server url="http://speedtest.knet.com.mm:8080/speedtest/upload.php" lat="25.3946" lon="97.3841" name="Myitkyina" country="Republic of the Union of Myanmar" cc="MM" sponsor="KNET" id="29992"  host="speedtest.knet.com.mm:8080" />
<server url="http://speedtest2.jl.chinamobile.com:8080/speedtest/upload.php" lat="43.8800" lon="125.3228" name="Changchun" country="China" cc="CN" sponsor="China Mobile,Jilin" id="16375"  host="speedtest2.jl.chinamobile.com:8080" />
<server url="http://speedtest1.jlinfo.jl.cn:8080/speedtest/upload.php" lat="43.8800" lon="125.3228" name="Changchun" country="China" cc="CN" sponsor="China Unicom" id="9484"  host="speedtest1.jlinfo.jl.cn:8080" />
<server url="http://tlc2-speedtest.globe.com.ph:8080/speedtest/upload.php" lat="15.5000" lon="120.5000" name="Tarlac" country="Philippines" cc="PH" sponsor="Globe Telecom" id="3756"  host="tlc2-speedtest.globe.com.ph:8080" />
<server url="http://speedtest-snk1.3bb.co.th:8080/speedtest/upload.php" lat="17.1546" lon="104.1348" name="Sakon Nakhon" country="Thailand" cc="TH" sponsor="3BB" id="24565"  host="speedtest-snk1.3bb.co.th:8080" />
<server url="http://nettest.internetmaekhong.com:8080/speedtest/upload.php" lat="20.4521" lon="99.8989" name="Tachileik" country="Republic of the Union of Myanmar" cc="MM" sponsor="IMNET" id="31886"  host="nettest.internetmaekhong.com:8080" />
<server url="http://speedtest.mangkone.com:8080/speedtest/upload.php" lat="17.9757" lon="102.6331" name="Vientiane" country="Laos" cc="LA" sponsor="Mangkone Technology" id="26845"  host="speedtest.mangkone.com:8080" />
<server url="http://sp4.unitel.com.la:8080/speedtest/upload.php" lat="17.9757" lon="102.6331" name="Vientiane Capital" country="Laos" cc="LA" sponsor="Unitel" id="18509"  host="sp4.unitel.com.la:8080" />
<server url="http://sp1.skytel.com.la:8080/speedtest/upload.php" lat="17.9757" lon="102.6331" name="Vientiane Capital" country="Laos" cc="LA" sponsor="Skytelecom State Company" id="18361"  host="sp1.skytel.com.la:8080" />
<server url="http://ookla.laotel.com:8080/speedtest/upload.php" lat="17.9757" lon="102.6331" name="Vientiane Capital" country="Laos" cc="LA" sponsor="Lao Telecom" id="26309"  host="ookla.laotel.com:8080" />
<server url="http://speedtest.etllao.com:8080/speedtest/upload.php" lat="17.9667" lon="102.6000" name="Vientiane" country="Lao PDR" cc="LA" sponsor="ETL company limited" id="6999"  host="speedtest.etllao.com:8080" />
<server url="http://speedtest.laopdr.com:8080/speedtest/upload.php" lat="17.9667" lon="102.6000" name="Vientiane" country="Laos" cc="LA" sponsor="Planet Co. Ltd" id="20017"  host="speedtest.laopdr.com:8080" />
<server url="http://clk-srv04.convergeict.com:8080/speedtest/upload.php" lat="15.1450" lon="120.5887" name="Angeles City" country="Philippines" cc="PH" sponsor="Converge ICT Solutions Inc." id="11577"  host="clk-srv04.convergeict.com:8080" />
<server url="http://speedtst-zmb.asianvision.com.ph:8080/speedtest/upload.php" lat="14.8386" lon="120.2842" name="Olongapo" country="Philippines" cc="PH" sponsor="Asian Vision" id="7149"  host="speedtst-zmb.asianvision.com.ph:8080" />
<server url="http://speedtest-cri1.3bb.co.th:8080/speedtest/upload.php" lat="19.9105" lon="99.8406" name="Chiang Rai" country="Thailand" cc="TH" sponsor="3BB" id="25116"  host="speedtest-cri1.3bb.co.th:8080" />
<server url="http://speedtest-udn1.3bb.co.th:8080/speedtest/upload.php" lat="17.3647" lon="102.8159" name="Udon Thani" country="Thailand" cc="TH" sponsor="3BB" id="24831"  host="speedtest-udn1.3bb.co.th:8080" />
<server url="http://speedtest-bulacan.skybroadband.com.ph:8080/speedtest/upload.php" lat="14.8143" lon="121.0725" name="San Jose Del Monte" country="Philippines" cc="PH" sponsor="Sky Fiber" id="27301"  host="speedtest-bulacan.skybroadband.com.ph:8080" />
<server url="http://119.92.223.158:8080/speedtest/upload.php" lat="14.6300" lon="121.0300" name="Quezon City" country="Philippines" cc="PH" sponsor="PLDT" id="7131"  host="119.92.223.158:8080" />
<server url="http://qc2-speedtest.globe.com.ph:8080/speedtest/upload.php" lat="14.6300" lon="121.0300" name="Quezon City" country="Philippines" cc="PH" sponsor="Globe Telecom" id="9398"  host="qc2-speedtest.globe.com.ph:8080" />
<server url="http://speedtest-qc.skybroadband.com.ph:8080/speedtest/upload.php" lat="14.6300" lon="121.0300" name="Quezon City" country="Philippines" cc="PH" sponsor="Sky Fiber" id="25843"  host="speedtest-qc.skybroadband.com.ph:8080" />
<server url="http://speedtest.clearpath.net.ph:8080/speedtest/upload.php" lat="14.5994" lon="121.0369" name="San Juan" country="Philippines" cc="PH" sponsor="ClearPath Networks" id="11341"  host="speedtest.clearpath.net.ph:8080" />
<server url="http://119.92.238.50:8080/speedtest/upload.php" lat="14.5800" lon="121.0000" name="Manila" country="Philippines" cc="PH" sponsor="PLDT" id="7167"  host="119.92.238.50:8080" />
<server url="http://mnl-speedtest.globe.com.ph:8080/speedtest/upload.php" lat="14.5800" lon="121.0000" name="Manila" country="Philippines" cc="PH" sponsor="Globe Telecom" id="20273"  host="mnl-speedtest.globe.com.ph:8080" />
<server url="http://greenhills.smart.com.ph:8080/speedtest/upload.php" lat="14.5800" lon="121.0000" name="Manila" country="Philippines" cc="PH" sponsor="Smart Communications Inc." id="7415"  host="greenhills.smart.com.ph:8080" />
<server url="http://speedtest-manila.skybroadband.com.ph:8080/speedtest/upload.php" lat="14.5800" lon="121.0000" name="Manila" country="Philippines" cc="PH" sponsor="Sky Fiber" id="26048"  host="speedtest-manila.skybroadband.com.ph:8080" />
<server url="http://speedtest-manda.skybroadband.com.ph:8080/speedtest/upload.php" lat="14.5800" lon="121.0000" name="Mandaluyong" country="Philippines" cc="PH" sponsor="Sky Fiber" id="26303"  host="speedtest-manda.skybroadband.com.ph:8080" />
<server url="http://112.198.111.47:8080/speedtest/upload.php" lat="14.5800" lon="121.0000" name="Mandaluyong" country="Philippines" cc="PH" sponsor="Globe Telecom" id="3757"  host="112.198.111.47:8080" />
<server url="http://speedtest.dlsu.edu.ph:8080/speedtest/upload.php" lat="14.5800" lon="121.0000" name="Manila" country="Philippines" cc="PH" sponsor="De La Salle University" id="31263"  host="speedtest.dlsu.edu.ph:8080" />
<server url="http://clk-srv07.convergeict.com:8080/speedtest/upload.php" lat="14.5823" lon="121.0851" name="Pasig City" country="Philippines" cc="PH" sponsor="Converge ICT Solutions Inc." id="11801"  host="clk-srv07.convergeict.com:8080" />
<server url="http://119.92.223.206:8080/speedtest/upload.php" lat="14.5823" lon="121.0851" name="Pasig City" country="Philippines" cc="PH" sponsor="PLDT" id="7123"  host="119.92.223.206:8080" />
<server url="http://sp2.radius.net.ph:8080/speedtest/upload.php" lat="14.5823" lon="121.0851" name="Pasig City" country="Philippines" cc="PH" sponsor="Radius Telecoms Inc" id="16210"  host="sp2.radius.net.ph:8080" />
<server url="http://speedtest.sourcetelecoms.com.ph:8080/speedtest/upload.php" lat="14.5823" lon="121.0851" name="Pasig City" country="Philippines" cc="PH" sponsor="Source Telecommunications, Inc." id="26238"  host="speedtest.sourcetelecoms.com.ph:8080" />
<server url="http://speedtest.dmsi.ph:8080/speedtest/upload.php" lat="14.5764" lon="121.0851" name="Pasig" country="Philippines" cc="PH" sponsor="DMSI" id="26433"  host="speedtest.dmsi.ph:8080" />
<server url="http://122.2.174.30:8080/speedtest/upload.php" lat="14.5500" lon="121.0300" name="Makati" country="Philippines" cc="PH" sponsor="PLDT" id="7205"  host="122.2.174.30:8080" />
<server url="http://speedtest.eastern-tele.com:8080/speedtest/upload.php" lat="14.5500" lon="121.0300" name="Makati" country="Philippines" cc="PH" sponsor="Eastern Communications" id="1238"  host="speedtest.eastern-tele.com:8080" />
<server url="http://speedtest.philcom.com.ph:8080/speedtest/upload.php" lat="14.5500" lon="121.0300" name="Makati" country="Philippines" cc="PH" sponsor="Philippine Global Communications, Inc." id="4229"  host="speedtest.philcom.com.ph:8080" />
<server url="http://speedtest-manila.rise.as:8080/speedtest/upload.php" lat="14.5500" lon="121.0300" name="Makati" country="Philippines" cc="PH" sponsor="RISE.ph" id="12210"  host="speedtest-manila.rise.as:8080" />
<server url="http://speedtest.globe.com.ph:8080/speedtest/upload.php" lat="14.5500" lon="121.0300" name="Makati" country="Philippines" cc="PH" sponsor="Globe Telecom" id="1169"  host="speedtest.globe.com.ph:8080" />
<server url="http://speedtest.infinivan.net:8080/upload.php" lat="14.5500" lon="121.0300" name="Makati" country="Philippines" cc="PH" sponsor="Infinivan" id="21882"  host="speedtest.infinivan.net:8080" />
<server url="http://laspinas1.smart.com.ph:8080/speedtest/upload.php" lat="14.5500" lon="121.0300" name="Makati" country="Philippines" cc="PH" sponsor="Smart Communications Inc." id="7521"  host="laspinas1.smart.com.ph:8080" />
<server url="http://sp1.nexlogic.ph:8080/speedtest/upload.php" lat="14.5500" lon="121.0300" name="Makati" country="Philippines" cc="PH" sponsor="NexLogic Telecommunications Network Inc." id="7805"  host="sp1.nexlogic.ph:8080" />
<server url="http://speedtest.ptt.com.ph:8080/speedtest/upload.php" lat="14.5500" lon="121.0300" name="Makati" country="Philippines" cc="PH" sponsor="Philippine Telegraph and Telephone Corp." id="22819"  host="speedtest.ptt.com.ph:8080" />
<server url="http://speedtest-makati.skybroadband.com.ph:8080/speedtest/upload.php" lat="14.5500" lon="121.0300" name="Makati" country="Philippines" cc="PH" sponsor="Sky Fiber" id="26305"  host="speedtest-makati.skybroadband.com.ph:8080" />
<server url="http://speedtest-cavite.skybroadband.com.ph:8080/speedtest/upload.php" lat="14.4791" lon="120.8970" name="Cavite" country="Philippines" cc="PH" sponsor="Sky Fiber" id="26354"  host="speedtest-cavite.skybroadband.com.ph:8080" />
<server url="http://tgt-speedtest.globe.com.ph:8080/speedtest/upload.php" lat="14.5176" lon="121.0509" name="Taguig" country="Philippines" cc="PH" sponsor="Globe Telecom" id="20274"  host="tgt-speedtest.globe.com.ph:8080" />
<server url="http://speedtest.ixs.ph:8080/speedtest/upload.php" lat="14.5176" lon="121.0509" name="Taguig" country="Philippines" cc="PH" sponsor="iXSforall, inc." id="27303"  host="speedtest.ixs.ph:8080" />
<server url="http://speedtest1.cablelink.com.ph:8080/speedtest/upload.php" lat="14.4729" lon="121.0192" name="Parañaque" country="Philippines" cc="PH" sponsor="Cablelink Internet Services Inc" id="10371"  host="speedtest1.cablelink.com.ph:8080" />
<server url="http://imu2-speedtest.globe.com.ph:8080/speedtest/upload.php" lat="14.4000" lon="120.9333" name="Imus" country="Philippines" cc="PH" sponsor="Globe Telecom" id="3947"  host="imu2-speedtest.globe.com.ph:8080" />
<server url="http://speedtest.planetcabletv.com:8080/speedtest/upload.php" lat="14.4130" lon="120.9737" name="Bacoor City" country="Philippines" cc="PH" sponsor="Planet Cable Inc." id="30626"  host="speedtest.planetcabletv.com:8080" />
<server url="http://speedtest-alabang.skybroadband.com.ph:8080/speedtest/upload.php" lat="14.4184" lon="121.0385" name="Alabang" country="Philippines" cc="PH" sponsor="Sky Fiber" id="26353"  host="speedtest-alabang.skybroadband.com.ph:8080" />
<server url="http://speedtest.dascacable.com:8080/speedtest/upload.php" lat="14.2990" lon="120.9590" name="Dasmariñas" country="Philippines" cc="PH" sponsor="Dasca Cable Services, INC." id="27979"  host="speedtest.dascacable.com:8080" />
<server url="http://speedtst-tim.asianvision.com.ph:8080/speedtest/upload.php" lat="14.2973" lon="121.0392" name="Carmona" country="Philippines" cc="PH" sponsor="Asian Vision" id="21921"  host="speedtst-tim.asianvision.com.ph:8080" />
<server url="http://ns37.timdcs.com:8080/speedtest/upload.php" lat="14.2973" lon="121.0392" name="Carmona" country="Philippines" cc="PH" sponsor="Total Information Management Corporation" id="27477"  host="ns37.timdcs.com:8080" />
<server url="http://speedtest-laguna.skybroadband.com.ph:8080/speedtest/upload.php" lat="14.2843" lon="121.0889" name="Sta Rosa Laguna" country="Philippines" cc="PH" sponsor="Sky Fiber" id="26355"  host="speedtest-laguna.skybroadband.com.ph:8080" />
<server url="http://speedtest-kkn1.3bb.co.th:8080/speedtest/upload.php" lat="16.4322" lon="102.8236" name="Khon Kaen" country="Thailand" cc="TH" sponsor="3BB" id="23519"  host="speedtest-kkn1.3bb.co.th:8080" />
<server url="http://speedtest-kkn1.ais-idc.net:8080/speedtest/upload.php" lat="16.4322" lon="102.8236" name="Khon Kaen" country="Thailand" cc="TH" sponsor="AIS" id="11195"  host="speedtest-kkn1.ais-idc.net:8080" />
<server url="http://speedtest13.dtacnetwork.co.th:8080/speedtest/upload.php" lat="16.4322" lon="102.8236" name="Khon Kaen" country="Thailand" cc="TH" sponsor="DTAC" id="21302"  host="speedtest13.dtacnetwork.co.th:8080" />
<server url="http://speedtest.kku.ac.th:8080/speedtest/upload.php" lat="16.4322" lon="102.8236" name="Khon Kaen" country="Thailand" cc="TH" sponsor="Khon Kaen University" id="10981"  host="speedtest.kku.ac.th:8080" />
<server url="http://kknspeedtestnet.totbroadband.com:8080/speedtest/upload.php" lat="16.4322" lon="102.8236" name="Khon Kaen" country="Thailand" cc="TH" sponsor="TOT" id="27327"  host="kknspeedtestnet.totbroadband.com:8080" />
<server url="http://speedtest-ubn1.3bb.co.th:8080/speedtest/upload.php" lat="15.2448" lon="104.8473" name="Ubon Ratchathani" country="Thailand" cc="TH" sponsor="3BB" id="24093"  host="speedtest-ubn1.3bb.co.th:8080" />
<server url="http://speedtest.ccvc.com.ph:8080/speedtest/upload.php" lat="14.1699" lon="121.2441" name="Los Baños" country="Philippines" cc="PH" sponsor="Community Cable Vision Cor" id="28861"  host="speedtest.ccvc.com.ph:8080" />
<server url="http://speedtest-batangas.skybroadband.com.ph:8080/speedtest/upload.php" lat="13.7565" lon="121.0583" name="Batangas" country="Philippines" cc="PH" sponsor="Sky Fiber" id="27305"  host="speedtest-batangas.skybroadband.com.ph:8080" />
<server url="http://speedtest.integranet.ph:8080/speedtest/upload.php" lat="13.7565" lon="121.0583" name="Batangas City" country="Phillipines" cc="PH" sponsor="IntegraNet" id="18416"  host="speedtest.integranet.ph:8080" />
<server url="http://5gtest.hl.chinamobile.com:8080/speedtest/upload.php" lat="45.7500" lon="126.6333" name="Harbin" country="China" cc="CN" sponsor="ChinaMobile-HeiLongjiang" id="26656"  host="5gtest.hl.chinamobile.com:8080" />
<server url="http://119.92.238.90:8080/speedtest/upload.php" lat="13.9333" lon="121.6167" name="Lucena" country="Philippines" cc="PH" sponsor="PLDT" id="10493"  host="119.92.238.90:8080" />
<server url="http://lucenacity.smart.com.ph:8080/speedtest/upload.php" lat="13.9333" lon="121.6167" name="Lucena City" country="Philippines" cc="PH" sponsor="Smart Communications, Inc." id="21304"  host="lucenacity.smart.com.ph:8080" />
<server url="http://speedtst-que.asianvision.com.ph:8080/speedtest/upload.php" lat="13.9333" lon="121.6167" name="Lucena" country="Philippines" cc="PH" sponsor="Asian Vision" id="9952"  host="speedtst-que.asianvision.com.ph:8080" />
<server url="http://speedtest-lpg1.3bb.co.th:8080/speedtest/upload.php" lat="18.2855" lon="99.5128" name="Lampang" country="Thailand" cc="TH" sponsor="3BB" id="26820"  host="speedtest-lpg1.3bb.co.th:8080" />
<server url="http://speedtest1.univision.mn:8080/speedtest/upload.php" lat="47.9200" lon="106.9200" name="Ulaanbaatar" country="Mongolia" cc="MN" sponsor="Univision" id="5521"  host="speedtest1.univision.mn:8080" />
<server url="http://speedtest.gemnet.mn:8080/speedtest/upload.php" lat="47.9200" lon="106.9200" name="Ulaanbaatar" country="Mongolia" cc="MN" sponsor="Gemnet LLC" id="2853"  host="speedtest.gemnet.mn:8080" />
<server url="http://coverage.mobicom.mn:8080/speedtest/upload.php" lat="47.9200" lon="106.9200" name="Ulaanbaatar" country="Mongolia" cc="MN" sponsor="Mobicom Corporation" id="5792"  host="coverage.mobicom.mn:8080" />
<server url="http://speedtest.kewiko.mn:8080/speedtest/upload.php" lat="47.9200" lon="106.9200" name="Ulaanbaatar" country="Mongolia" cc="MN" sponsor="Kewiko LLC" id="4580"  host="speedtest.kewiko.mn:8080" />
<server url="http://speedtest.mtnetworks.mn:8080/speedtest/upload.php" lat="47.9200" lon="106.9200" name="Ulaanbaatar" country="Mongolia" cc="MN" sponsor="MT Networks LLC" id="30173"  host="speedtest.mtnetworks.mn:8080" />
<server url="http://speedtest-cmi2.3bb.co.th:8080/speedtest/upload.php" lat="18.7061" lon="98.9817" name="Chiangmai" country="Thailand" cc="TH" sponsor="3BB" id="23249"  host="speedtest-cmi2.3bb.co.th:8080" />
<server url="http://speedtest-cmi1.ais-idc.net:8080/speedtest/upload.php" lat="18.7061" lon="98.9817" name="Chiang Mai" country="Thailand" cc="TH" sponsor="AIS" id="10844"  host="speedtest-cmi1.ais-idc.net:8080" />
<server url="http://cmispeedtestnet.totbroadband.com:8080/speedtest/upload.php" lat="18.7061" lon="98.9817" name="Chiang Mai" country="Thailand" cc="TH" sponsor="TOT" id="27328"  host="cmispeedtestnet.totbroadband.com:8080" />
<server url="http://ookla.td.v2n.jp:8080/speedtest/upload.php" lat="34.5733" lon="135.4831" name="Sakai" country="JP" cc="JP" sponsor="tdlabs" id="17838"  host="ookla.td.v2n.jp:8080" />
<server url="http://speedtest.topnet.mn:8080/speedtest/upload.php" lat="48.0216" lon="106.8872" name="Ulaanbaatar" country="Mongolia" cc="MN" sponsor="Topnet ISP" id="23349"  host="speedtest.topnet.mn:8080" />
<server url="http://speedtest6.telenor.com.mm:8080/speedtest/upload.php" lat="21.9588" lon="96.0891" name="Mandalay" country="Republic of the Union of Myanmar" cc="MM" sponsor="Telenor Myanmar" id="20671"  host="speedtest6.telenor.com.mm:8080" />
<server url="http://speedtest.ooredoo.com.mm:8080/speedtest/upload.php" lat="21.9588" lon="96.0891" name="Mandalay" country="Republic of the Union of Myanmar" cc="MM" sponsor="Ooredoo Myanmar" id="20882"  host="speedtest.ooredoo.com.mm:8080" />
<server url="http://mpt03.mpt.net.mm:8080/speedtest/upload.php" lat="21.9588" lon="96.0891" name="Mandalay" country="Malaysia" cc="MM" sponsor="MPT" id="17602"  host="mpt03.mpt.net.mm:8080" />
<server url="http://speedtest.mowcn.com:8080/speedtest/upload.php" lat="21.9588" lon="96.0891" name="Mandalay" country="Myanmar" cc="MM" sponsor="Ocean Wave" id="30010"  host="speedtest.mowcn.com:8080" />
<server url="http://speedtest-mdy.mytel.com.mm:8080/speedtest/upload.php" lat="21.9588" lon="96.0891" name="Mandalay" country="Republic of the Union of Myanmar" cc="MM" sponsor="Mytel" id="30327"  host="speedtest-mdy.mytel.com.mm:8080" />
<server url="http://globalnetmdymmisp.com:8080/speedtest/upload.php" lat="21.9588" lon="96.0891" name="Mandalay" country="Republic of the Union of Myanmar" cc="MM" sponsor="Global Technology" id="31791"  host="globalnetmdymmisp.com:8080" />
<server url="http://speedtest.local24.jp:8080/speedtest/upload.php" lat="35.0116" lon="135.7681" name="Kyoto" country="Japan" cc="JP" sponsor="Local24 Inc.," id="24774"  host="speedtest.local24.jp:8080" />
<server url="http://symbiosbroadband.in:8080/speedtest/upload.php" lat="25.9200" lon="93.7300" name="Dimapur" country="India" cc="IN" sponsor="SymBios Creations Pvt. Ltd." id="20599"  host="symbiosbroadband.in:8080" />
<server url="http://speedtest-plk1.3bb.co.th:8080/speedtest/upload.php" lat="16.8211" lon="100.2659" name="‎Phitsanulok" country="Thailand" cc="TH" sponsor="3BB" id="23762"  host="speedtest-plk1.3bb.co.th:8080" />
<server url="http://speedtest-plk1.ais-idc.net:8080/speedtest/upload.php" lat="16.8211" lon="100.2659" name="Phitsanulok" country="TH" cc="TH" sponsor="AIS" id="17134"  host="speedtest-plk1.ais-idc.net:8080" />
<server url="http://speedtest12.dtacnetwork.co.th:8080/speedtest/upload.php" lat="16.8211" lon="100.2659" name="Phitsanulok" country="Thailand" cc="TH" sponsor="DTAC" id="21301"  host="speedtest12.dtacnetwork.co.th:8080" />
<server url="http://plkspeedtestnet.totbroadband.com:8080/speedtest/upload.php" lat="16.8211" lon="100.2659" name="Phitsanulok" country="Thailand" cc="TH" sponsor="TOT" id="27329"  host="plkspeedtestnet.totbroadband.com:8080" />
<server url="http://speedtest.vladivostok.zelenaya.net:8080/speedtest/upload.php" lat="43.1198" lon="131.8869" name="Vladivostok" country="Russia" cc="RU" sponsor="Zelenaya.net" id="20951"  host="speedtest.vladivostok.zelenaya.net:8080" />
<server url="http://speedtest-up1.podryad.tv:8080/speedtest/upload.php" lat="43.1318" lon="131.9235" name="Vladivostok" country="Russian Federation" cc="RU" sponsor="Podryad" id="6316"  host="speedtest-up1.podryad.tv:8080" />
<server url="http://speedtest.vladlink.ru:8080/speedtest/upload.php" lat="43.1318" lon="131.9235" name="Vladivostok" country="Russian Federation" cc="RU" sponsor="Vladlink" id="7403"  host="speedtest.vladlink.ru:8080" />
<server url="http://speedtest.inetvl.ru:8080/speedtest/upload.php" lat="43.1318" lon="131.9235" name="Vladivostok" country="Russian Federation" cc="RU" sponsor="Alyans Telekom" id="3805"  host="speedtest.inetvl.ru:8080" />
<server url="http://noc.vvsu.ru:8080/speedtest/upload.php" lat="43.1318" lon="131.9235" name="Vladivostok" country="Russian Federation" cc="RU" sponsor="Vladivostok State University of Economics" id="6375"  host="noc.vvsu.ru:8080" />
<server url="http://vvosp1.dv.rt.ru:8080/speedtest/upload.php" lat="43.1318" lon="131.9235" name="Vladivostok" country="Russia" cc="RU" sponsor="Rostelecom" id="25204"  host="vvosp1.dv.rt.ru:8080" />
<server url="http://speedtest.vladivostok.ertelecom.ru:8080/speedtest/upload.php" lat="43.1318" lon="131.9235" name="Vladivostok" country="Russia" cc="RU" sponsor="DOM.RU" id="27277"  host="speedtest.vladivostok.ertelecom.ru:8080" />
<server url="http://speed.malang.net.in:8080/speedtest/upload.php" lat="24.8170" lon="93.9368" name="Imphal" country="India" cc="IN" sponsor="Malang Internet" id="28712"  host="speed.malang.net.in:8080" />
<server url="http://speed.skay.in:8080/speedtest/upload.php" lat="24.8170" lon="93.9368" name="Imphal" country="India" cc="IN" sponsor="SKAY Broadband Service" id="10991"  host="speed.skay.in:8080" />
<server url="http://speedtest-nma1.3bb.co.th:8080/speedtest/upload.php" lat="14.9750" lon="102.1000" name="Nakhon Ratchasima" country="Thailand" cc="TH" sponsor="3BB" id="23377"  host="speedtest-nma1.3bb.co.th:8080" />
<server url="http://speedtest-nma1.ais-idc.net:8080/speedtest/upload.php" lat="14.9750" lon="102.1000" name="Nakhon Ratchasima" country="TH" cc="TH" sponsor="AIS" id="17111"  host="speedtest-nma1.ais-idc.net:8080" />
<server url="http://nmaspeedtestnet.totbroadband.com:8080/speedtest/upload.php" lat="14.9750" lon="102.1000" name="Nakhon Ratchasima" country="Thailand" cc="TH" sponsor="TOT" id="27326"  host="nmaspeedtestnet.totbroadband.com:8080" />
<server url="http://nkh-speedtest-srv02.ti.ru:8080/speedtest/upload.php" lat="42.8167" lon="132.8667" name="Nakhodka" country="Russian Federation" cc="RU" sponsor="Net By Net Holding LLC" id="11073"  host="nkh-speedtest-srv02.ti.ru:8080" />
<server url="http://yssyr.speedtest.vladlink.ru:8080/speedtest/upload.php" lat="43.8000" lon="131.9667" name="Ussuriysk" country="Russian Federation" cc="RU" sponsor="Vladlink" id="10177"  host="yssyr.speedtest.vladlink.ru:8080" />
<server url="http://jk-test1.jaist.ac.jp:8080/speedtest/upload.php" lat="36.4360" lon="136.5420" name="Nomi" country="Japan" cc="JP" sponsor="JAIST(ino-lab)" id="6766"  host="jk-test1.jaist.ac.jp:8080" />
<server url="http://speedtest1.dctv.com.ph:8080/speedtest/upload.php" lat="13.1333" lon="123.7333" name="Legazpi City" country="Philippines" cc="PH" sponsor="DCTV Cable Network &amp; Broadband Services" id="4679"  host="speedtest1.dctv.com.ph:8080" />
<server url="http://mpt02.mpt.net.mm:8080/speedtest/upload.php" lat="19.7633" lon="96.0785" name="Naypyidaw" country="MM" cc="MM" sponsor="MPT" id="17590"  host="mpt02.mpt.net.mm:8080" />
<server url="http://speedtest.mm-link.net:8080/speedtest/upload.php" lat="19.7633" lon="96.0785" name="Naypyidaw" country="MM" cc="MM" sponsor="mm-link" id="18053"  host="speedtest.mm-link.net:8080" />
<server url="http://speedtest-nsn1.3bb.co.th:8080/speedtest/upload.php" lat="15.6987" lon="100.1200" name="Nakhon Sawan" country="Thailand" cc="TH" sponsor="3BB" id="24990"  host="speedtest-nsn1.3bb.co.th:8080" />
<server url="http://speedtest3.dctv.com.ph:8080/speedtest/upload.php" lat="12.7600" lon="123.9304" name="Sorsogon" country="Philippines" cc="PH" sponsor="DCTV Cable Network &amp; Broadband Services" id="19360"  host="speedtest3.dctv.com.ph:8080" />
<server url="http://speedtest1.xz.chinamobile.com:8080/speedtest/upload.php" lat="29.6500" lon="91.1000" name="Lhasa" country="China" cc="CN" sponsor="China Mobile Group Tibet" id="18444"  host="speedtest1.xz.chinamobile.com:8080" />
<server url="http://speedtest.poipetinternet.com:8080/speedtest/upload.php" lat="13.6579" lon="102.5809" name="Poipet" country="Cambodia" cc="KH" sponsor="PPIN Internet" id="25221"  host="speedtest.poipetinternet.com:8080" />
<server url="http://sp1.mnetconnect.in:8080/speedtest/upload.php" lat="26.0515" lon="91.8696" name="Guwahati" country="India" cc="IN" sponsor="M-Net Fiber Fast" id="27046"  host="sp1.mnetconnect.in:8080" />
<server url="http://speedtest-sri1.3bb.co.th:8080/speedtest/upload.php" lat="14.5289" lon="100.9101" name="Saraburi" country="Thailand" cc="TH" sponsor="3BB" id="26819"  host="speedtest-sri1.3bb.co.th:8080" />
<server url="http://host.nssap.com:8080/speedtest/upload.php" lat="14.5289" lon="100.9101" name="Saraburi" country="Thailand" cc="TH" sponsor="UEXEO" id="31235"  host="host.nssap.com:8080" />
<server url="http://guwahati.neconnect.in:8080/speedtest/upload.php" lat="26.1445" lon="91.7362" name="Guwahati" country="India" cc="IN" sponsor="ShreeNortheast Connect &amp; Services P. Ltd" id="14354"  host="guwahati.neconnect.in:8080" />
<server url="http://speed.catlabroadband.in:8080/speedtest/upload.php" lat="26.1445" lon="91.7362" name="Guwahati" country="India" cc="IN" sponsor="CATLA IT &amp; ENGINEERING CO PVT LTD" id="28118"  host="speed.catlabroadband.in:8080" />
<server url="http://speedtest.siqesnet.com:8080/speedtest/upload.php" lat="26.1445" lon="91.7362" name="Guwahati" country="India" cc="IN" sponsor="SiqesNet" id="18686"  host="speedtest.siqesnet.com:8080" />
<server url="http://speedgwh1.jioconnect.com:8080/speedtest/upload.php" lat="26.1445" lon="91.7362" name="Guwahati" country="India" cc="IN" sponsor="Jio" id="10107"  host="speedgwh1.jioconnect.com:8080" />
<server url="http://speedtest.ngcbroadband.com:8080/speedtest/upload.php" lat="26.1445" lon="91.7362" name="Guwahati" country="India" cc="IN" sponsor="NGC Broadband Pvt Ltd" id="19698"  host="speedtest.ngcbroadband.com:8080" />
<server url="http://ooklatestguwahati.live.vodafone.in:8080/speedtest/upload.php" lat="26.1445" lon="91.7362" name="Guwahati" country="India" cc="IN" sponsor="Vodafone Idea Ltd" id="24686"  host="ooklatestguwahati.live.vodafone.in:8080" />
<server url="http://sp1.crystalclearbroadband.in:8080/speedtest/upload.php" lat="26.1445" lon="91.7362" name="Guwahati" country="India" cc="IN" sponsor="Crystal Clear Broadband Services Pvt. Ltd." id="31297"  host="sp1.crystalclearbroadband.in:8080" />
<server url="http://speedtest.cdpalace.in:8080/speedtest/upload.php" lat="26.1445" lon="91.7362" name="Guwahati" country="India" cc="IN" sponsor="C.D. Palace &amp; Electronics" id="26829"  host="speedtest.cdpalace.in:8080" />
<server url="http://speedtest.itel.com:8080/upload.php" lat="51.0447" lon="114.0719" name="Calgary, AB" country="Canada" cc="CA" sponsor="iTel.com (iTel Networks Inc)" id="28801"  host="speedtest.itel.com:8080" />
<server url="http://speedtest-aya1.3bb.co.th:8080/speedtest/upload.php" lat="14.3692" lon="100.5877" name="Ayutthaya" country="Thailand" cc="TH" sponsor="3BB" id="24588"  host="speedtest-aya1.3bb.co.th:8080" />
<server url="http://speedtest-aya1.ais-idc.net:8080/speedtest/upload.php" lat="14.3692" lon="100.5877" name="Ayutthaya" country="TH" cc="TH" sponsor="AIS" id="17690"  host="speedtest-aya1.ais-idc.net:8080" />
<server url="http://aya-spn1.totbroadband.com:8080/speedtest/upload.php" lat="14.3692" lon="100.5877" name="Ayutthaya" country="Thailand" cc="TH" sponsor="TOT" id="27494"  host="aya-spn1.totbroadband.com:8080" />
<server url="http://speedtestkv3dp1.viettel.vn:8080/speedtest/upload.php" lat="11.0686" lon="107.1676" name="Dong Nai" country="Vietnam" cc="VN" sponsor="Viettel Network" id="27601"  host="speedtestkv3dp1.viettel.vn:8080" />
<server url="http://speedtest10.dtacnetwork.co.th:8080/speedtest/upload.php" lat="14.0500" lon="100.4833" name="Pathum Thani" country="Thailand" cc="TH" sponsor="DTAC" id="20219"  host="speedtest10.dtacnetwork.co.th:8080" />
<server url="http://speedtest-pte1.ais-idc.net:8080/speedtest/upload.php" lat="14.0500" lon="100.4833" name="Pathum Thani" country="Thailand" cc="TH" sponsor="AIS" id="16062"  host="speedtest-pte1.ais-idc.net:8080" />
<server url="http://speedtest-pte1.3bb.co.th:8080/speedtest/upload.php" lat="14.0208" lon="100.5250" name="Pathum Thani" country="Thailand" cc="TH" sponsor="3BB" id="23295"  host="speedtest-pte1.3bb.co.th:8080" />
<server url="http://speedtest.kingtel.host:8080/speedtest/upload.php" lat="11.5564" lon="104.9282" name="Phnom Penh" country="Cambodia" cc="KH" sponsor="Kingtel Communication Limited" id="30017"  host="speedtest.kingtel.host:8080" />
<server url="http://speedtest.smart.com.kh:8080/speedtest/upload.php" lat="11.5500" lon="104.9167" name="Phnom Penh" country="Cambodia" cc="KH" sponsor="Smart Axiata" id="12545"  host="speedtest.smart.com.kh:8080" />
<server url="http://speedtest1.neocomisp.com.kh:8080/speedtest/upload.php" lat="11.5500" lon="104.9167" name="Phnom Penh" country="Cambodia" cc="KH" sponsor="NeocomISP Limited" id="8977"  host="speedtest1.neocomisp.com.kh:8080" />
<server url="http://speedtest.sinet.com.kh:8080/speedtest/upload.php" lat="11.5500" lon="104.9167" name="Phnom Penh" country="Cambodia" cc="KH" sponsor="SINET" id="5828"  host="speedtest.sinet.com.kh:8080" />
<server url="http://speedtest.metfone.com.kh:8080/speedtest/upload.php" lat="11.5500" lon="104.9167" name="Phnom Penh" country="Cambodia" cc="KH" sponsor="MetfonePNP for App and Web" id="1788"  host="speedtest.metfone.com.kh:8080" />
<server url="http://speedtest.cellcard.com.kh:8080/speedtest/upload.php" lat="11.5500" lon="104.9167" name="Phnom Penh" country="Cambodia" cc="KH" sponsor="Cellcard" id="13093"  host="speedtest.cellcard.com.kh:8080" />
<server url="http://sp1.today.com.kh:8080/speedtest/upload.php" lat="11.5500" lon="104.9167" name="Phnom Penh" country="Cambodia" cc="KH" sponsor="Today Communication" id="10798"  host="sp1.today.com.kh:8080" />
<server url="http://speedtest.wicam.com.kh:8080/speedtest/upload.php" lat="11.5500" lon="104.9167" name="Phnom Penh" country="Cambodia" cc="KH" sponsor="WiCAM Corporation" id="1452"  host="speedtest.wicam.com.kh:8080" />
<server url="http://speedtest.mekongnet.com.kh:8080/speedtest/upload.php" lat="11.5500" lon="104.9167" name="Phnom Penh" country="Cambodia" cc="KH" sponsor="MekongNet ISP" id="10574"  host="speedtest.mekongnet.com.kh:8080" />
<server url="http://speedtest.smtelemedia.com:8080/speedtest/upload.php" lat="11.5500" lon="104.9167" name="Phnom Penh" country="Cambodia" cc="KH" sponsor="Cambodian SingMeng Telemedia Co., Ltd." id="13280"  host="speedtest.smtelemedia.com:8080" />
<server url="http://speedtest1.citylink.com.kh:8080/speedtest/upload.php" lat="11.5500" lon="104.9167" name="Phnom Penh" country="Cambodia" cc="KH" sponsor="CityLink" id="8615"  host="speedtest1.citylink.com.kh:8080" />
<server url="http://speedtest.flashtech.com.kh:8080/speedtest/upload.php" lat="11.5500" lon="104.9167" name="Phnom Penh" country="Cambodia" cc="KH" sponsor="Flash Tech" id="19013"  host="speedtest.flashtech.com.kh:8080" />
<server url="http://speedtest.turbotech.com:8080/speedtest/upload.php" lat="11.5500" lon="104.9167" name="Phnom Penh" country="Cambodia" cc="KH" sponsor="TURBOTECH" id="16460"  host="speedtest.turbotech.com:8080" />
<server url="http://speedtest.yes.com.kh:8080/speedtest/upload.php" lat="11.5500" lon="104.9167" name="Phnom Penh" country="Cambodia" cc="KH" sponsor="Yes SEATEL" id="30034"  host="speedtest.yes.com.kh:8080" />
<server url="http://speedtest.online.com.kh:8080/speedtest/upload.php" lat="11.5500" lon="104.9167" name="Phnom Penh" country="Cambodia" cc="KH" sponsor="Online ISP" id="28242"  host="speedtest.online.com.kh:8080" />
<server url="http://speedtest3.ezecom.com.kh:8080/speedtest/upload.php" lat="11.5500" lon="104.9167" name="Phnom Penh" country="Cambodia" cc="KH" sponsor="EZECOM" id="31848"  host="speedtest3.ezecom.com.kh:8080" />
<server url="http://speedtest.mekongix.net:8080/speedtest/upload.php" lat="11.5500" lon="104.9167" name="Phnom Penh" country="Cambodia" cc="KH" sponsor="MekongIX" id="30474"  host="speedtest.mekongix.net:8080" />
<server url="http://speedtest02.opennet.com.kh:8080/speedtest/upload.php" lat="11.5500" lon="104.9167" name="Phnom Penh" country="Cambodia" cc="KH" sponsor="OPENNET" id="31438"  host="speedtest02.opennet.com.kh:8080" />
<server url="http://speedtest01.cootel.com.kh:8080/speedtest/upload.php" lat="11.5500" lon="104.9167" name="Phnom Penh" country="Cambodia" cc="KH" sponsor="Cootel Cambodia" id="8760"  host="speedtest01.cootel.com.kh:8080" />
<server url="http://sp1.uih.co.th:8080/speedtest/upload.php" lat="13.8362" lon="100.5634" name="Chatuchak" country="Thailand" cc="TH" sponsor="UIH" id="18487"  host="sp1.uih.co.th:8080" />
<server url="http://speedtest-jas1.3bb.co.th:8080/speedtest/upload.php" lat="13.8621" lon="100.5144" name="Nonthaburi" country="Thailand" cc="TH" sponsor="3BB" id="22667"  host="speedtest-jas1.3bb.co.th:8080" />
<server url="http://speedtest-nbi1.ais-idc.net:8080/speedtest/upload.php" lat="13.8621" lon="100.5144" name="Nonthaburi" country="Thailand" cc="TH" sponsor="AIS" id="16061"  host="speedtest-nbi1.ais-idc.net:8080" />
<server url="http://speedtest3.vtn.com.vn:8080/speedtest/upload.php" lat="10.7500" lon="106.6667" name="Ho Chi Minh City" country="Vietnam" cc="VN" sponsor="VNPT-NET" id="6106"  host="speedtest3.vtn.com.vn:8080" />
<server url="http://hcmspeedtest.cmctelecom.vn:8080/speedtest/upload.php" lat="10.7500" lon="106.6667" name="Ho Chi Minh" country="Vietnam" cc="VN" sponsor="CMC Telecom" id="18250"  host="hcmspeedtest.cmctelecom.vn:8080" />
<server url="http://speedtest.tpcoms.vn:8080/speedtest/upload.php" lat="10.7500" lon="106.6667" name="Ho Chi Minh" country="Vietnam" cc="VN" sponsor="TPCOMS" id="24232"  host="speedtest.tpcoms.vn:8080" />
<server url="http://speedtesthcm.htc-itc.com.vn:8080/speedtest/upload.php" lat="10.7500" lon="106.6667" name="Ho Chi Minh City" country="Viet Nam" cc="VN" sponsor="HTC-ITC" id="12635"  host="speedtesthcm.htc-itc.com.vn:8080" />
<server url="http://speedtestkv3b.viettel.vn:8080/speedtest/upload.php" lat="10.7500" lon="106.6667" name="Ho Chi Minh" country="Vietnam" cc="VN" sponsor="Viettel Network" id="26853"  host="speedtestkv3b.viettel.vn:8080" />
<server url="http://118.107.96.3:8080/speedtest/upload.php" lat="10.7500" lon="106.6667" name="Ho Chi Minh City" country="Vietnam" cc="VN" sponsor="VTC DIGICOM" id="8158"  host="118.107.96.3:8080" />
<server url="http://speedtest.fpt.vn:8080/speedtest/upload.php" lat="10.7500" lon="106.6667" name="Ho Chi Minh City" country="Vietnam" cc="VN" sponsor="FPT Telecom" id="2515"  host="speedtest.fpt.vn:8080" />
<server url="http://vhcm.vietpn.com:8080/speedtest/upload.php" lat="10.7500" lon="106.6667" name="Ho Chi Minh City" country="Viet Nam" cc="VN" sponsor="VIETPN CO, LTD" id="11342"  host="vhcm.vietpn.com:8080" />
<server url="http://speedtest.vietnamhost.vn:8080/speedtest/upload.php" lat="10.7500" lon="106.6667" name="Ho Chi Minh City" country="Viet Nam" cc="VN" sponsor="VietNamHost" id="15324"  host="speedtest.vietnamhost.vn:8080" />
<server url="http://speedtest1.dts.com.vn:8080/speedtest/upload.php" lat="10.7500" lon="106.6667" name="Ho Chi Minh City" country="Viet Nam" cc="VN" sponsor="DTS Telecom" id="11411"  host="speedtest1.dts.com.vn:8080" />
<server url="http://hcm-speedtest01.sctv.com.vn:8080/speedtest/upload.php" lat="10.7500" lon="106.6667" name="Ho Chi Minh City" country="Vietnam" cc="VN" sponsor="SCTV Co.Ltd" id="8491"  host="hcm-speedtest01.sctv.com.vn:8080" />
<server url="http://sp2.dcnet.vn:8080/speedtest/upload.php" lat="10.7500" lon="106.6667" name="Ho Chi Minh City" country="Vietnam" cc="VN" sponsor="DCNET" id="22708"  host="sp2.dcnet.vn:8080" />
<server url="http://speedtest4.hcmc.netnam.vn:8080/speedtest/upload.php" lat="10.7500" lon="106.6667" name="Ho Chi Minh City" country="Vietnam" cc="VN" sponsor="NetNam" id="3381"  host="speedtest4.hcmc.netnam.vn:8080" />
<server url="http://sp1.supernet.vn:8080/speedtest/upload.php" lat="10.7500" lon="106.6667" name="Ho Chi Minh City" country="Vietnam" cc="VN" sponsor="Supernet" id="9668"  host="sp1.supernet.vn:8080" />
<server url="http://sp1.mobifone.vn:8080/upload.php" lat="10.7500" lon="106.6667" name="Ho Chi Minh" country="Vietnam" cc="VN" sponsor="MOBIFONE" id="27994"  host="sp1.mobifone.vn:8080" />
<server url="http://vnmhcmspt1.vietnamobile.com.vn:8080/speedtest/upload.php" lat="10.7500" lon="106.6667" name="Ho Chi Minh" country="VN" cc="VN" sponsor="Vietnamobile" id="16749"  host="vnmhcmspt1.vietnamobile.com.vn:8080" />
<server url="http://speedtest-bkk-ptw1.ais-idc.net:8080/speedtest/upload.php" lat="13.7402" lon="100.5352" name="Pathum Wan" country="Thailand" cc="TH" sponsor="AIS" id="17241"  host="speedtest-bkk-ptw1.ais-idc.net:8080" />
<server url="http://speedtest11.dtacnetwork.co.th:8080/speedtest/upload.php" lat="13.7402" lon="100.5352" name="Pathum Wan" country="Thailand" cc="TH" sponsor="DTAC" id="20220"  host="speedtest11.dtacnetwork.co.th:8080" />
<server url="http://th.speedtest.byteark.com:8080/speedtest/upload.php" lat="13.7262" lon="100.5282" name="Bangrak" country="Thailand" cc="TH" sponsor="ByteArk Co., Ltd." id="27203"  host="th.speedtest.byteark.com:8080" />
<server url="http://ilo-speedtest.globe.com.ph:8080/speedtest/upload.php" lat="11.0000" lon="122.6667" name="Iloilo" country="Philippines" cc="PH" sponsor="Globe Telecom" id="20538"  host="ilo-speedtest.globe.com.ph:8080" />
<server url="http://ns3.panaybroadband.com.ph:8080/speedtest/upload.php" lat="11.0000" lon="122.6667" name="Iloilo" country="Philippines" cc="PH" sponsor="Panay Broadband (BCATVi)" id="9935"  host="ns3.panaybroadband.com.ph:8080" />
<server url="http://speedtest-sp1.3bb.co.th:8080/speedtest/upload.php" lat="13.7500" lon="100.4833" name="Bangkok" country="Thailand" cc="TH" sponsor="3BB" id="8990"  host="speedtest-sp1.3bb.co.th:8080" />
<server url="http://catspeedtest.net/speedtest/upload.php" lat="13.7500" lon="100.4833" name="Bangkok" country="Thailand" cc="TH" sponsor="CAT Telecom Public Company Limited" id="13871"  host="catspeedtest.net:8080" />
<server url="http://speedtest1.ais-idc.net:8080/speedtest/upload.php" lat="13.7500" lon="100.4833" name="Bangkok" country="Thailand" cc="TH" sponsor="AWN" id="2459"  host="speedtest1.ais-idc.net:8080" />
<server url="http://speedtest.violin.co.th:8080/speedtest/upload.php" lat="13.7500" lon="100.4833" name="Bangkok" country="Thailand" cc="TH" sponsor="Symphony Communication Public Company Limited" id="6521"  host="speedtest.violin.co.th:8080" />
<server url="http://speed1.ispio.com:8080/speedtest/upload.php" lat="13.7500" lon="100.4833" name="Bangkok" country="Thailand" cc="TH" sponsor="NIPA.CLOUD 1st Cloud Thailand" id="16628"  host="speed1.ispio.com:8080" />
<server url="http://speedtest1.bangmod.cloud:8080/speedtest/upload.php" lat="13.7500" lon="100.4833" name="Bangkok" country="Thailand" cc="TH" sponsor="Bangmod Enterprise Co., Ltd." id="9830"  host="speedtest1.bangmod.cloud:8080" />
<server url="http://speedtest.csloxinfo.com:8080/speedtest/upload.php" lat="13.7500" lon="100.4833" name="Bangkok" country="Thailand" cc="TH" sponsor="CS LoxInfo" id="5394"  host="speedtest.csloxinfo.com:8080" />
<server url="http://sp1.totbb.net:8080/speedtest/upload.php" lat="13.7500" lon="100.4833" name="Bangkok" country="Thailand" cc="TH" sponsor="TOT Public Company Limited" id="9361"  host="sp1.totbb.net:8080" />
<server url="http://sp1.ais.co.th:8080/speedtest/upload.php" lat="13.7500" lon="100.4833" name="Bangkok" country="Thailand" cc="TH" sponsor="AIS" id="3147"  host="sp1.ais.co.th:8080" />
<server url="http://speedtest.it.chula.ac.th:8080/speedtest/upload.php" lat="13.7500" lon="100.4833" name="Bangkok" country="Thailand" cc="TH" sponsor="Chulalongkorn University" id="5431"  host="speedtest.it.chula.ac.th:8080" />
<server url="http://lotus.cpe.rmutt.ac.th:8080/speedtest/upload.php" lat="13.7500" lon="100.4833" name="Bangkok" country="Thailand" cc="TH" sponsor="CPE_II-RMUTT" id="21494"  host="lotus.cpe.rmutt.ac.th:8080" />
<server url="http://speedtest.rmutp.ac.th:8080/speedtest/upload.php" lat="13.7500" lon="100.4833" name="Bangkok" country="Thailand" cc="TH" sponsor="RMUTP" id="7115"  host="speedtest.rmutp.ac.th:8080" />
<server url="http://totspeedtest.totbroadband.com:8080/speedtest/upload.php" lat="13.7500" lon="100.4833" name="Bangkok" country="Thailand" cc="TH" sponsor="TOT" id="27241"  host="totspeedtest.totbroadband.com:8080" />
<server url="http://test.iotcool.net:8080/speedtest/upload.php" lat="13.7500" lon="100.4833" name="Bangkok" country="Thailand" cc="TH" sponsor="IOTCool.NET" id="30424"  host="test.iotcool.net:8080" />
<server url="http://speedtest.readyidc.com:8080/speedtest/upload.php" lat="13.7500" lon="100.4833" name="Bangkok" country="Thailand" cc="TH" sponsor="Siamdata Communication Co.,Ltd" id="22120"  host="speedtest.readyidc.com:8080" />
<server url="http://speedtest.tcc-technology.com:8080/speedtest/upload.php" lat="13.7500" lon="100.4833" name="Bangkok" country="Thailand" cc="TH" sponsor="TCC Technology" id="11823"  host="speedtest.tcc-technology.com:8080" />
<server url="http://speedtest-cbi1.3bb.co.th:8080/speedtest/upload.php" lat="13.3611" lon="100.9850" name="Chonburi" country="Thailand" cc="TH" sponsor="3BB" id="23118"  host="speedtest-cbi1.3bb.co.th:8080" />
<server url="http://speedtest-cbi1.ais-idc.net:8080/speedtest/upload.php" lat="13.3611" lon="100.9850" name="Chonburi" country="Thailand" cc="TH" sponsor="AIS" id="16128"  host="speedtest-cbi1.ais-idc.net:8080" />
<server url="http://cbispeedtestnet.totbroadband.com:8080/speedtest/upload.php" lat="13.3611" lon="100.9850" name="Chonburi" country="Thailand" cc="TH" sponsor="TOT" id="27331"  host="cbispeedtestnet.totbroadband.com:8080" />
<server url="http://speedtest-spk1.3bb.co.th:8080/speedtest/upload.php" lat="13.5991" lon="100.5998" name="Samut Prakarn" country="Thailand" cc="TH" sponsor="3BB" id="23312"  host="speedtest-spk1.3bb.co.th:8080" />
<server url="http://speedtest3.dtacnetwork.co.th:8080/speedtest/upload.php" lat="13.5991" lon="100.5998" name="Samut Prakarn" country="Thailand" cc="TH" sponsor="dtac" id="3855"  host="speedtest3.dtacnetwork.co.th:8080" />
<server url="http://speedtest-spk1.ais-idc.net:8080/speedtest/upload.php" lat="13.5991" lon="100.5998" name="Samut Prakarn" country="Thailand" cc="TH" sponsor="AIS" id="16063"  host="speedtest-spk1.ais-idc.net:8080" />
<server url="http://speedtest-npt1.3bb.co.th:8080/speedtest/upload.php" lat="13.8140" lon="100.0373" name="Nakhon Pathom" country="Thailand" cc="TH" sponsor="3BB" id="23646"  host="speedtest-npt1.3bb.co.th:8080" />
<server url="http://speedtest-npt1.ais-idc.net:8080/speedtest/upload.php" lat="13.8140" lon="100.0373" name="Nakhon Pathom" country="Thailand" cc="TH" sponsor="AIS" id="17691"  host="speedtest-npt1.ais-idc.net:8080" />
<server url="http://nptspeedtestnet.totbroadband.com:8080/speedtest/upload.php" lat="13.8140" lon="100.0373" name="Nakhon Pathom" country="Thailand" cc="TH" sponsor="TOT" id="27310"  host="nptspeedtestnet.totbroadband.com:8080" />
<server url="http://speedtest-ilo.skybroadband.com.ph:8080/speedtest/upload.php" lat="10.7202" lon="122.5621" name="IloIlo" country="Philippines" cc="PH" sponsor="Sky Fiber" id="25555"  host="speedtest-ilo.skybroadband.com.ph:8080" />
<server url="http://speedtest-skn1.3bb.co.th:8080/speedtest/upload.php" lat="13.5498" lon="100.2741" name="Samut Sakhon" country="Thailand" cc="TH" sponsor="3BB" id="29053"  host="speedtest-skn1.3bb.co.th:8080" />
<server url="http://bandwidth-test.agbisp.net:8080/speedtest/upload.php" lat="16.8661" lon="96.1951" name="Yangon" country="Republic of the Union of Myanmar" cc="MM" sponsor="AGB Communication" id="23102"  host="bandwidth-test.agbisp.net:8080" />
<server url="http://speed.netcoreinternet.com:8080/speedtest/upload.php" lat="16.8661" lon="96.1951" name="Yangon" country="Myanmar" cc="MM" sponsor="Net Core" id="20929"  host="speed.netcoreinternet.com:8080" />
<server url="http://truenetisp.net:8080/speedtest/upload.php" lat="16.8409" lon="96.1735" name="Yangon" country="Myanmar" cc="MM" sponsor="TrueNET" id="24514"  host="truenetisp.net:8080" />
<server url="http://chita.speedtest.rt.ru:8080/speedtest/upload.php" lat="52.0500" lon="113.4667" name="Chita" country="Russian Federation" cc="RU" sponsor="Rostelecom" id="4287"  host="chita.speedtest.rt.ru:8080" />
<server url="http://speedtest.megalink.ru:8080/speedtest/upload.php" lat="52.0500" lon="113.4667" name="Chita" country="Russian Federation" cc="RU" sponsor="MegaLink LLC" id="5054"  host="speedtest.megalink.ru:8080" />
<server url="http://speedtest.migchita.ru:8080/speedtest/upload.php" lat="52.0500" lon="113.4667" name="Chita" country="Russia" cc="RU" sponsor="Mig-service Chita" id="19026"  host="speedtest.migchita.ru:8080" />
<server url="http://speedtest.telenet-chita.ru:8080/speedtest/upload.php" lat="52.0500" lon="113.4667" name="Chita" country="Russia" cc="RU" sponsor="Telenet-Chita" id="27732"  host="speedtest.telenet-chita.ru:8080" />
<server url="http://speedtest.zabline.ru:8080/speedtest/upload.php" lat="52.0500" lon="113.4667" name="Chita" country="Russian Federation" cc="RU" sponsor="AO ChitaTehenergo" id="15370"  host="speedtest.zabline.ru:8080" />
<server url="http://bcn-speedtest.globe.com.ph:8080/speedtest/upload.php" lat="10.6667" lon="122.9500" name="Bacolod" country="Philippines" cc="PH" sponsor="Globe Telecom" id="20539"  host="bcn-speedtest.globe.com.ph:8080" />
<server url="http://speedtest-bac1.skybroadband.com.ph:8080/speedtest/upload.php" lat="10.6667" lon="122.9500" name="Bacolod" country="Philippines" cc="PH" sponsor="Sky Fiber" id="25562"  host="speedtest-bac1.skybroadband.com.ph:8080" />
<server url="http://sp1.telecom-horizon.com:8080/speedtest/upload.php" lat="16.8000" lon="96.1500" name="Yangon" country="Myanmar" cc="MM" sponsor="HTI" id="19405"  host="sp1.telecom-horizon.com:8080" />
<server url="http://mpt01.mpt.net.mm:8080/speedtest/upload.php" lat="16.8000" lon="96.1500" name="Yangon" country="MM" cc="MM" sponsor="MPT" id="17589"  host="mpt01.mpt.net.mm:8080" />
<server url="http://spt02.fortunebb.net:8080/speedtest/upload.php" lat="16.8000" lon="96.1500" name="Yangon" country="Republic of the Union of Myanmar" cc="MM" sponsor="Fortune Broadband 2" id="25690"  host="spt02.fortunebb.net:8080" />
<server url="http://speedtest.mytel.com.mm:8080/speedtest/upload.php" lat="16.8000" lon="96.1500" name="Yangon" country="Myanmar" cc="MM" sponsor="Mytel" id="16916"  host="speedtest.mytel.com.mm:8080" />
<server url="http://sp1.myanmarnet.com:8080/speedtest/upload.php" lat="16.8000" lon="96.1500" name="Yangon" country="Myanmar" cc="MM" sponsor="Myanmar Net" id="6683"  host="sp1.myanmarnet.com:8080" />
<server url="http://sp1.unilink.com.mm:8080/speedtest/upload.php" lat="16.8000" lon="96.1500" name="Yangon" country="Republic of the Union of Myanmar" cc="MM" sponsor="Unilink Myanmar" id="20565"  host="sp1.unilink.com.mm:8080" />
<server url="http://speedtest.teleport.net.mm:8080/speedtest/upload.php" lat="16.8000" lon="96.1500" name="Yangon" country="Myanmar" cc="MM" sponsor="Yatanarpon Teleport" id="9965"  host="speedtest.teleport.net.mm:8080" />
<server url="http://speedtest.campanaworks.com:8080/speedtest/upload.php" lat="16.8000" lon="96.1500" name="Yangon" country="Republic of the Union of Myanmar" cc="MM" sponsor="Campana" id="28493"  host="speedtest.campanaworks.com:8080" />
<server url="http://speedtest3.telenor.com.mm:8080/speedtest/upload.php" lat="16.8000" lon="96.1500" name="Yangon" country="Republic of the Union of Myanmar" cc="MM" sponsor="Telenor Myanmar" id="20670"  host="speedtest3.telenor.com.mm:8080" />
<server url="http://globalnetmmisp.com:8080/speedtest/upload.php" lat="16.8000" lon="96.1500" name="Yangon" country="Myanmar" cc="MM" sponsor="Global Technology" id="14059"  host="globalnetmmisp.com:8080" />
<server url="http://speedtest.ananda.com.mm:8080/speedtest/upload.php" lat="16.8000" lon="96.1500" name="Yangon" country="MM" cc="MM" sponsor="Ananda" id="17918"  host="speedtest.ananda.com.mm:8080" />
<server url="http://speedtest4.ooredoo.com.mm:8080/speedtest/upload.php" lat="16.8000" lon="96.1500" name="Yangon" country="Myanmar" cc="MM" sponsor="Ooredoo Myanmar" id="19383"  host="speedtest4.ooredoo.com.mm:8080" />
<server url="http://5bbbroadband.com:8080/speedtest/upload.php" lat="16.8000" lon="96.1500" name="Yangon" country="Myanmar" cc="MM" sponsor="5BB Broadband" id="14062"  host="5bbbroadband.com:8080" />
<server url="http://speedtest.asianlead.net:8080/speedtest/upload.php" lat="16.8000" lon="96.1500" name="Yangon" country="Republic of the Union of Myanmar" cc="MM" sponsor="A Net" id="26385"  host="speedtest.asianlead.net:8080" />
<server url="http://speedtest.mbt.com.mm:8080/speedtest/upload.php" lat="16.8000" lon="96.1500" name="YANGON" country="Republic of the Union of Myanmar" cc="MM" sponsor="MBT" id="29000"  host="speedtest.mbt.com.mm:8080" />
<server url="http://sp1.atcc-gns.net:8080/speedtest/upload.php" lat="35.7333" lon="139.3333" name="Fussa-shi" country="Japan" cc="JP" sponsor="Allied Telesis Capital Corporation" id="6087"  host="sp1.atcc-gns.net:8080" />
<server url="http://speedtest-ryg1.3bb.co.th:8080/speedtest/upload.php" lat="12.6814" lon="101.2816" name="Rayong" country="Thailand" cc="TH" sponsor="3BB" id="26897"  host="speedtest-ryg1.3bb.co.th:8080" />
<server url="http://speedtest-pty1.ais-idc.net:8080/speedtest/upload.php" lat="12.9276" lon="100.8771" name="Pattaya" country="Thailand" cc="TH" sponsor="AIS" id="17692"  host="speedtest-pty1.ais-idc.net:8080" />
<server url="http://sp5.atcc-gns.net:8080/speedtest/upload.php" lat="35.5715" lon="139.3732" name="Sagamihara" country="Japan" cc="JP" sponsor="Allied Telesis Capital Corporation" id="8407"  host="sp5.atcc-gns.net:8080" />
<server url="http://speedtest.velocity.net.bd:8080/speedtest/upload.php" lat="22.3375" lon="91.8389" name="Chittagong" country="Bangladesh" cc="BD" sponsor="Velocity Internet" id="23075"  host="speedtest.velocity.net.bd:8080" />
<server url="http://speedtest.cmclbd.com:8080/speedtest/upload.php" lat="22.3375" lon="91.8389" name="Chittagong" country="Bangladesh" cc="BD" sponsor="CMCL-Chittagong" id="22818"  host="speedtest.cmclbd.com:8080" />
<server url="http://speedtest.ctgtel.net:8080/speedtest/upload.php" lat="22.3375" lon="91.8389" name="Chittagong" country="Bangladesh" cc="BD" sponsor="CTGTEL" id="27300"  host="speedtest.ctgtel.net:8080" />
<server url="http://speedtest.colbd.com:8080/speedtest/upload.php" lat="22.3375" lon="91.8389" name="Chittagong" country="Bangladesh" cc="BD" sponsor="Chittagong Online Limited" id="28015"  host="speedtest.colbd.com:8080" />
<server url="http://speedtest.ddnbd.net:8080/speedtest/upload.php" lat="22.3375" lon="91.8389" name="Chittagong" country="Bangladesh" cc="BD" sponsor="DDN-Chittagong" id="23469"  host="speedtest.ddnbd.net:8080" />
<server url="http://speedtest.ddnbd.com:8080/speedtest/upload.php" lat="22.3569" lon="91.7832" name="Chattogong" country="Bangladesh" cc="BD" sponsor="DDN-Chattogram" id="30484"  host="speedtest.ddnbd.com:8080" />
<server url="http://speed.plus.net.bd:8080/speedtest/upload.php" lat="22.3569" lon="91.7832" name="Chittagong" country="Bangladesh" cc="BD" sponsor="Plus Link" id="29827"  host="speed.plus.net.bd:8080" />
<server url="http://speedtest.bt.bt:8080/speedtest/upload.php" lat="27.4712" lon="89.6339" name="Thimphu" country="Bhutan" cc="BT" sponsor="Bhutan Telecom Limited" id="14901"  host="speedtest.bt.bt:8080" />
<server url="http://speedtest.tashicell.com:8080/speedtest/upload.php" lat="27.4712" lon="89.6339" name="Thimphu" country="Bhutan" cc="BT" sponsor="TashiCell, TashiInfoCommLtd" id="12808"  host="speedtest.tashicell.com:8080" />
<server url="http://tac-speedtest.globe.com.ph:8080/speedtest/upload.php" lat="11.2543" lon="124.9617" name="Tacloban" country="Philippines" cc="PH" sponsor="Globe Telecom" id="20537"  host="tac-speedtest.globe.com.ph:8080" />
<server url="http://speedtest.netscopebd.com:8080/speedtest/upload.php" lat="24.1344" lon="90.7860" name="Narsingdi" country="Bangladesh" cc="BD" sponsor="NETSCOPE" id="11654"  host="speedtest.netscopebd.com:8080" />
<server url="http://speedtest.ulu.ertelecom.ru:8080/speedtest/upload.php" lat="51.8239" lon="107.6073" name="Ulan-Ude" country="Russia" cc="RU" sponsor="DOM.RU" id="26131"  host="speedtest.ulu.ertelecom.ru:8080" />
<server url="http://ulan-ude.speedtest.rt.ru:8080/speedtest/upload.php" lat="51.8333" lon="107.6000" name="Ulan-Ude" country="Russia" cc="RU" sponsor="Rostelecom" id="4482"  host="ulan-ude.speedtest.rt.ru:8080" />
<server url="http://213.87.101.14:8080/speedtest/upload.php" lat="51.8333" lon="107.6000" name="Ulan-Ude" country="Russian Federation" cc="RU" sponsor="MTS" id="3985"  host="213.87.101.14:8080" />
<server url="http://ookla.mbspeed.net:8080/speedtest/upload.php" lat="35.6833" lon="139.6833" name="Tokyo" country="Japan" cc="JP" sponsor="Rakuten Mobile , Inc" id="24333"  host="ookla.mbspeed.net:8080" />
<server url="http://speed.open.ad.jp:8080/speedtest/upload.php" lat="35.6833" lon="139.6833" name="Tokyo" country="Japan" cc="JP" sponsor="OPEN Project (via 20G SINET)" id="15047"  host="speed.open.ad.jp:8080" />
<server url="http://lg-tok.fdcservers.net:8080/speedtest/upload.php" lat="35.6833" lon="139.6833" name="Tokyo" country="Japan" cc="JP" sponsor="fdcservers.net" id="28910"  host="lg-tok.fdcservers.net:8080" />
<server url="http://jp.as.speedtest.i3d.net:8080/speedtest/upload.php" lat="35.6833" lon="139.6833" name="Tokyo" country="Japan" cc="JP" sponsor="i3D.net" id="21569"  host="jp.as.speedtest.i3d.net:8080" />
<server url="http://speed.coe.ad.jp:8080/speedtest/upload.php" lat="35.7081" lon="139.7522" name="Bunkyo" country="Japan" cc="JP" sponsor="IPA CyberLab" id="14623"  host="speed.coe.ad.jp:8080" />
<server url="http://speedtest.sptcantho.com:8080/speedtest/upload.php" lat="10.0452" lon="105.7469" name="Can Tho" country="Vietnam" cc="VN" sponsor="SPT4" id="13373"  host="speedtest.sptcantho.com:8080" />
<server url="http://speedtest.sinetonline.net:8080/speedtest/upload.php" lat="26.8367" lon="89.3843" name="Siliguri" country="IN" cc="IN" sponsor="Siliguri Internet &amp; Cable TV Pvt. Ltd." id="17520"  host="speedtest.sinetonline.net:8080" />
